,road_number,origin_address,destination_address,distance,watercrossing,origin_lat,origin_long,destination_lat,destination_long,origin_lat_rad,origin_long_rad,destination_lat_rad,destination_long_rad
0,E01,"Larne, United Kingdom","Belfast, United Kingdom",36,False,54.8508458,-5.8183116,54.5964411,-5.9302761,0.9573278567137031,-0.10154869432697931,0.9528876570661547,-0.1035028434973285
1,E01,"Porto, Portugal","Aveiro, Portugal",67,False,41.1494512,-8.6107884,40.640496,-8.6537841,0.7181934088287317,-0.1502866087725345,0.7093104648435854,-0.15103702530173418
2,E01,"Huelva, Spain","Sevilla, Spain",91,False,37.2575874,-6.9484945,37.3886303,-5.9953403,0.6502675714795535,-0.12127410708171713,0.6525547015459152,-0.10463842801250459
3,E01,"Vila Real de Santo António, Portugal","Huelva, Spain",62,False,37.1946052,-7.4155628,37.2575874,-6.9484945,0.649168324719404,-0.12942598674840977,0.6502675714795535,-0.12127410708171713
4,E01,"Faro, Portugal","Vila Real de Santo António, Portugal",57,False,37.0162727,-7.9351771,37.1946052,-7.4155628,0.6460558354310912,-0.1384949671238553,0.649168324719404,-0.12942598674840977
5,E01,"Coimbra, Portugal","Lisboa, Portugal",199,False,40.2111931,-8.4294632,38.7077507,-9.1365919,0.7018177157502254,-0.14712188701569728,0.6755776957561398,-0.1594636110660445
6,E01,"Aveiro, Portugal","Coimbra, Portugal",61,False,40.640496,-8.6537841,40.2111931,-8.4294632,0.7093104648435854,-0.15103702530173418,0.7018177157502254,-0.14712188701569728
7,E01,"Rosslare, Ireland","La Coruña, Spain",1002,True,52.2735675,-6.3869031,43.3712091,-8.3958768,0.9123458646385009,-0.11147248810083264,0.7569703993659267,-0.14653569375180545
8,E01,"Setúbal, Portugal","Faro, Portugal",262,False,38.5241783,-8.8932341,37.0162727,-7.9351771,0.6723737529603518,-0.15521621619563467,0.6460558354310912,-0.1384949671238553
9,E01,"Pontevedra, Spain","Valença do Minho, Portugal",57,False,42.6075172,-8.4714942,42.02453175,-8.636604069735451,0.7436414612401153,-0.147855466353603,0.7334664456463945,-0.15073717720802557
10,E01,"La Coruña, Spain","Pontevedra, Spain",128,False,43.3712091,-8.3958768,42.6075172,-8.4714942,0.7569703993659267,-0.14653569375180545,0.7436414612401153,-0.147855466353603
11,E01,"Wexford, Ireland","Rosslare, Ireland",19,False,52.46018745,-6.606515459159162,52.2735675,-6.3869031,0.9156029972159081,-0.11530544684623235,0.9123458646385009,-0.11147248810083264
12,E01,"Dublin, Ireland","Wexford, Ireland",140,False,53.3497645,-6.2602732,52.46018745,-6.606515459159162,0.9311290456885863,-0.10926237941436147,0.9156029972159081,-0.11530544684623235
13,E01,"Belfast, United Kingdom","Dublin, Ireland",165,False,54.5964411,-5.9302761,53.3497645,-6.2602732,0.9528876570661547,-0.1035028434973285,0.9311290456885863,-0.10926237941436147
14,E01,"Valença do Minho, Portugal","Porto, Portugal",115,False,42.02453175,-8.636604069735451,41.1494512,-8.6107884,0.7334664456463945,-0.15073717720802557,0.7181934088287317,-0.1502866087725345
15,E01,"Lisboa, Portugal","Setúbal, Portugal",46,False,38.7077507,-9.1365919,38.5241783,-8.8932341,0.6755776957561398,-0.1594636110660445,0.6723737529603518,-0.15521621619563467
16,E03,"Cherbourg, France","Rennes, France",205,False,49.51271975,-1.5755441090380597,48.1113387,-1.6800198,0.8641599812547237,-0.027498432213114692,0.8397012678571683,-0.029321877008696633
17,E03,"Rennes, France","Nantes, France",112,False,48.1113387,-1.6800198,47.2186371,-1.5541362,0.8397012678571683,-0.029321877008696633,0.824120685699347,-0.027124793714433097
18,E03,"Nantes, France","La Rochelle, France",143,False,47.2186371,-1.5541362,46.1591126,-1.1520434,0.824120685699347,-0.027124793714433097,0.8056284946688004,-0.020106950455870038
19,E04,"Luleå, Sweden","Haparanda, Sweden",134,False,65.5831187,22.1459535,65.833333,24.1,1.1446413550412633,0.38651980456856205,1.149008418411836,0.4206243497306334
20,E04,"Sundsvall, Sweden","Umeå, Sweden",281,False,62.3907552,17.3071024,63.8256568,20.2630745,1.0889241010457733,0.3020659208598127,1.1139678584079078,0.3536573666019037
21,E04,"Tornio, Finland","Kemi, Finland",33,False,65.8457589,24.1464,65.7333404,24.5666495,1.14922529127936,0.4214341825035588,1.1472632183142064,0.42876891995841865
22,E04,"Haparanda, Sweden","Tornio, Finland",6,False,65.833333,24.1,65.8457589,24.1464,1.149008418411836,0.4206243497306334,1.14922529127936,0.4214341825035588
23,E04,"Umeå, Sweden","Luleå, Sweden",274,False,63.8256568,20.2630745,65.5831187,22.1459535,1.1139678584079078,0.3536573666019037,1.1446413550412633,0.38651980456856205
24,E04,"Södertälje, Sweden","Stockholm, Sweden",32,False,59.1964289,17.6271663,59.3251172,18.0710935,1.033172589727725,0.30765208973158653,1.0354186242715193,0.3154000810107459
25,E04,"Norrköping, Sweden","Södertälje, Sweden",130,False,58.5909124,16.1903511,59.1964289,17.6271663,1.0226043331275727,0.2825749337488857,1.033172589727725,0.30765208973158653
26,E04,"Jönköping, Sweden","Norrköping, Sweden",170,False,57.7825634,14.165719,58.5909124,16.1903511,1.0084959815723693,0.2472384374623186,1.0226043331275727,0.2825749337488857
27,E04,"Stockholm, Sweden","Sundsvall, Sweden",387,False,59.3251172,18.0710935,62.3907552,17.3071024,1.0354186242715193,0.3154000810107459,1.0889241010457733,0.3020659208598127
28,E04,"Helsingborg, Sweden","Jönköping, Sweden",241,False,56.0441984,12.7040684,57.7825634,14.165719,0.978155788720938,0.22172782197856802,1.0084959815723693,0.2472384374623186
29,E05,"Poitiers, France","Bordeaux, France",256,False,46.5802596,0.340196,44.841225,-0.5800364,0.8129788964536968,0.005937540302114629,0.7826270168775943,-0.010123544961414837
30,E05,"Paris, France","Orléans, France",134,False,48.8566969,2.3514616,47.9027336,1.9086066,0.8527102225539067,0.041040747154213894,0.8360604220257163,0.0333114692952944
31,E05,"Orléans, France","Tours, France",118,False,47.9027336,1.9086066,47.3900474,0.6889268,0.8360604220257163,0.0333114692952944,0.8271123598061781,0.012024040965228468
32,E05,"Cádiz, Spain","Algeciras, Spain",117,False,36.5297438,-6.2928976,36.1311725,-5.4473991,0.637564304219985,-0.10983178261084912,0.6306079227310308,-0.09507504996517585
33,E05,"Sevilla, Spain","Cádiz, Spain",122,False,37.3886303,-5.9953403,36.5297438,-6.2928976,0.6525547015459152,-0.10463842801250459,0.637564304219985,-0.10983178261084912
34,E05,"Cordóba, Spain","Sevilla, Spain",141,False,37.8845813,-4.7760138,37.3886303,-5.9953403,0.6612106794244736,-0.08335716593068596,0.6525547015459152,-0.10463842801250459
35,E05,"Madrid, Spain","Cordóba, Spain",391,False,40.4167047,-3.7035825,37.8845813,-4.7760138,0.705404569821267,-0.06463970874424288,0.6612106794244736,-0.08335716593068596
36,E05,"Burgos, Spain","Madrid, Spain",250,False,42.343926,-3.696977,40.4167047,-3.7035825,0.7390409269208325,-0.0645244210205024,0.705404569821267,-0.06463970874424288
37,E05,"San Sebastián, Spain","Burgos, Spain",246,False,43.3224219,-1.9838889,42.343926,-3.696977,0.7561189020930976,-0.03462539329876853,0.7390409269208325,-0.0645244210205024
38,E05,"Bordeaux, France","San Sebastián, Spain",243,False,44.841225,-0.5800364,43.3224219,-1.9838889,0.7826270168775943,-0.010123544961414837,0.7561189020930976,-0.03462539329876853
39,E05,"Tours, France","Poitiers, France",101,False,47.3900474,0.6889268,46.5802596,0.340196,0.8271123598061781,0.012024040965228468,0.8129788964536968,0.005937540302114629
40,E05,"Birmingham, United Kingdom","Newbury, United Kingdom",166,False,52.4796992,-1.9026911,51.4020055,-1.3236425,0.9159435414962341,-0.033208224343392684,0.8971342381032342,-0.02310191974432904
41,E05,"Warrington, United Kingdom","Birmingham, United Kingdom",128,False,53.3899497,-2.5943178,52.4796992,-1.9026911,0.9318304097391588,-0.045279387453095746,0.9159435414962341,-0.033208224343392684
42,E05,"Preston, United Kingdom","Warrington, United Kingdom",49,False,53.7593363,-2.6992717,53.3899497,-2.5943178,0.9382774221219061,-0.047111178570904626,0.9318304097391588,-0.045279387453095746
43,E05,"Penrith, United Kingdom","Preston, United Kingdom",109,False,54.68613645,-2.7569406682809117,53.7593363,-2.6992717,0.9544531362473834,-0.0481176919436347,0.9382774221219061,-0.047111178570904626
44,E05,"Carlisle, United Kingdom","Penrith, United Kingdom",40,False,54.8948478,-2.9362311,54.68613645,-2.7569406682809117,0.9580958364911657,-0.05124690029445488,0.9544531362473834,-0.0481176919436347
45,E05,"Gretna, United Kingdom","Carlisle, United Kingdom",16,False,54.9953097,-3.0669404,54.8948478,-2.9362311,0.9598492274189749,-0.0535282079424319,0.9580958364911657,-0.05124690029445488
46,E05,"Glasgow, United Kingdom","Gretna, United Kingdom",142,False,55.8609825,-4.2488787,54.9953097,-3.0669404,0.9749580680239334,-0.0741569228328564,0.9598492274189749,-0.0535282079424319
47,E05,"Greenock, United Kingdom","Glasgow, United Kingdom",40,False,55.9473423,-4.7564721,55.8609825,-4.2488787,0.9764653308752972,-0.08301609892424898,0.9749580680239334,-0.0741569228328564
48,E05,"Le Havre, France","Paris, France",196,False,49.4938975,0.1079732,48.8566969,2.3514616,0.8638314710195901,0.0018844878439143416,0.8527102225539067,0.041040747154213894
49,E05,"Southampton, United Kingdom","Le Havre, France",207,True,50.9025349,-1.404189,49.4938975,0.1079732,0.8884168316163225,-0.02450772137028665,0.8638314710195901,0.0018844878439143416
50,E05,"Newbury, United Kingdom","Southampton, United Kingdom",71,False,51.4020055,-1.3236425,50.9025349,-1.404189,0.8971342381032342,-0.02310191974432904,0.8884168316163225,-0.02450772137028665
51,E06,"Karasjok, Norway","Kirkenes, Norway",267,False,69.4720741,25.5183286,69.7271478,30.0448971,1.2125164312344763,0.445378853675835,1.2169683071347206,0.524382377817896
52,E06,"Narvik, Norway","Olderfjord, Norway",612,False,68.28988385,17.086538711321808,70.4748985,25.064997,1.1918833189870015,0.2982163582820344,1.230019018833813,0.4374667246525012
53,E06,"Olderfjord, Norway","Karasjok, Norway",138,False,70.4748985,25.064997,69.4720741,25.5183286,1.230019018833813,0.4374667246525012,1.2125164312344763,0.445378853675835
54,E06,"Lillehammer, Norway","Trondheim, Norway",352,False,61.1333408,10.426585544131413,63.4305658,10.3951929,1.0669780797037842,0.18197824748593766,1.107072219612911,0.18143034248493764
55,E06,"Trondheim, Norway","Narvik, Norway",887,False,63.4305658,10.3951929,68.28988385,17.086538711321808,1.107072219612911,0.18143034248493764,1.1918833189870015,0.2982163582820344
56,E06,"Göteborg, Sweden","Oslo, Norway",314,False,57.7072326,11.9670171,59.9133301,10.7389701,1.0071812110842078,0.20886385003746352,1.0456848760792237,0.1874303865182247
57,E06,"Malmö, Sweden","Halmstad, Sweden",140,False,55.6052931,13.0001566,56.6739826,12.8574827,0.9704954461314844,0.22689553594487147,0.9891475965879765,0.22440540663321032
58,E06,"Oslo, Norway","Lillehammer, Norway",178,False,59.9133301,10.7389701,61.1333408,10.426585544131413,1.0456848760792237,0.1874303865182247,1.0669780797037842,0.18197824748593766
59,E06,"Trelleborg, Sweden","Malmö, Sweden",27,False,55.37592,13.1461522,55.6052931,13.0001566,0.9664921303209784,0.22944363985829608,0.9704954461314844,0.22689553594487147
60,E06,"Halmstad, Sweden","Göteborg, Sweden",136,False,56.6739826,12.8574827,57.7072326,11.9670171,0.9891475965879765,0.22440540663321032,1.0071812110842078,0.20886385003746352
61,E07,"Pau, France","Jaça, Spain",115,False,43.2957547,-0.3685668,42.5692515,-0.549372,0.7556534716508098,-0.006432704173539437,0.742973598784535,-0.009588350218266288
62,E07,"Jaça, Spain","Huesca, Spain",73,False,42.5692515,-0.549372,42.13606145,-0.029802662719165485,0.742973598784535,-0.009588350218266288,0.735413006125156,-0.0005201545903108038
63,E07,"Huesca, Spain","Zaragoza, Spain",72,False,42.13606145,-0.029802662719165485,41.6521342,-0.8809428,0.735413006125156,-0.0005201545903108038,0.7269668822725343,-0.015375352381737904
64,E08,"Kilpisjärvi, Finland","Tornio, Finland",457,False,69.0454638,20.8004,65.8457589,24.1464,1.2050706768765553,0.3630354657318285,1.14922529127936,0.4214341825035588
65,E08,"Skibotn, Norway","Kilpisjärvi, Finland",44,False,69.3912822,20.2678866,69.0454638,20.8004,1.2111063465705345,0.35374135359083897,1.2050706768765553,0.3630354657318285
66,E08,"Nordkjosbotn, Norway","Skibotn, Norway",48,False,69.2186366,19.5580286,69.3912822,20.2678866,1.2080931124114531,0.34135199426921703,1.2111063465705345,0.35374135359083897
67,E08,"Tromsø, Norway","Nordkjosbotn, Norway",70,False,69.649208,18.9543434,69.2186366,19.5580286,1.2156080010063748,0.33081569988365656,1.2080931124114531,0.34135199426921703
68,E09,"Orléans, France","Limoges, France",277,False,47.9027336,1.9086066,45.8354243,1.2644847,0.8360604220257163,0.0333114692952944,0.7999790680836172,0.02206942135609274
69,E09,"Limoges, France","Toulouse, France",299,False,45.8354243,1.2644847,43.6044622,1.4442469,0.7999790680836172,0.02206942135609274,0.7610414339514102,0.025206863616721295
70,E09,"Toulouse, France","Barcelona, Spain",391,False,43.6044622,1.4442469,41.3828939,2.1774322,0.7610414339514102,0.025206863616721295,0.722267752558477,0.038003361128943675
71,E10,"Narvik, Norway","Kiruna, Sweden",175,False,68.28988385,17.086538711321808,67.8550724,20.2255482,1.1918833189870015,0.2982163582820344,1.1842944275591307,0.35300240911081254
72,E10,"Kiruna, Sweden","Luleå, Sweden",350,False,67.8550724,20.2255482,65.5831187,22.1459535,1.1842944275591307,0.35300240911081254,1.1446413550412633,0.38651980456856205
73,E10,"Å, Norway","Narvik, Norway",400,False,67.8803708,12.9822999,68.28988385,17.086538711321808,1.1847359679346172,0.2265838777363306,1.1918833189870015,0.2982163582820344
74,E11,"Montluçon, France","Clermont-Ferrand, France",114,False,46.3399276,2.6067229,45.7774551,3.0819427,0.8087843117557939,0.04549589729213489,0.79896731467887,0.05379004747280384
75,E11,"Clermont-Ferrand, France","Montpellier, France",335,False,45.7774551,3.0819427,43.6112422,3.8767337,0.79896731467887,0.05379004747280384,0.7611597672746953,0.06766176728802209
76,E11,"Vierzon, France","Montluçon, France",121,False,47.2217489,2.0691421,46.3399276,2.6067229,0.8241749968550105,0.036113342336629765,0.8087843117557939,0.04549589729213489
77,E12,"Tampere, Finland","Helsinki, Finland",177,False,61.4980214,23.7603118,60.1674881,24.9427473,1.0733429568919326,0.4146956722104604,1.0501207699995072,0.43533306487792583
78,E12,"Umeå, Sweden","Vaasa, Finland",118,True,63.8256568,20.2630745,63.081820949999994,21.479812522296804,1.1139678584079078,0.3536573666019037,1.1009854737310372,0.37489345122518714
79,E12,"Vaasa, Finland","Tampere, Finland",240,False,63.081820949999994,21.479812522296804,61.4980214,23.7603118,1.1009854737310372,0.37489345122518714,1.0733429568919326,0.4146956722104604
80,E12,"Mo i Rana, Norway","Umeå, Sweden",475,False,66.3110969,14.1386991,63.8256568,20.2630745,1.157346971514005,0.246766851243759,1.1139678584079078,0.3536573666019037
81,E13,"Northampton, United Kingdom","London, United Kingdom",110,False,52.23433665,-0.9028072768185829,51.5073219,-0.1276474,0.911661157137645,-0.015756959491448147,0.8989723560395815,-0.0022278674116102096
82,E13,"Leicester, United Kingdom","Northampton, United Kingdom",63,False,52.6361398,-1.1330789,52.23433665,-0.9028072768185829,0.9186739450500296,-0.019775957489875578,0.911661157137645,-0.015756959491448147
83,E13,"Nottingham, United Kingdom","Leicester, United Kingdom",43,False,52.9534193,-1.1496461,52.6361398,-1.1330789,0.9242115169741109,-0.02006510967771198,0.9186739450500296,-0.019775957489875578
84,E13,"Sheffield, United Kingdom","Nottingham, United Kingdom",74,False,53.3806626,-1.4702278,52.9534193,-1.1496461,0.9316683192661968,-0.025660315864352686,0.9242115169741109,-0.02006510967771198
85,E13,"Doncaster, United Kingdom","Sheffield, United Kingdom",38,False,53.5227681,-1.1335312,53.3806626,-1.4702278,0.9341485281263897,-0.019783851614082346,0.9316683192661968,-0.025660315864352686
86,E14,"Storlien, Sweden","Ostersund, Sweden",159,False,63.316072,12.0997791,63.1793655,14.6357061,1.105073925829791,0.21118098405899619,1.1026879472959135,0.25544125979921845
87,E14,"Trondheim, Norway","Storlien, Sweden",103,False,63.4305658,10.3951929,63.316072,12.0997791,1.107072219612911,0.18143034248493764,1.105073925829791,0.21118098405899619
88,E14,"Ostersund, Sweden","Sundsvall, Sweden",186,False,63.1793655,14.6357061,62.3907552,17.3071024,1.1026879472959135,0.25544125979921845,1.0889241010457733,0.3020659208598127
89,E15,"Dover, United Kingdom","Calais, France",42,True,51.1251275,1.3134228,50.9524769,1.8538446,0.8923018053768972,0.022923552330762976,0.8892884839513535,0.032355692090317266
90,E15,"Orange, France","Narbonne, France",191,False,44.1371311,4.8078783,43.1837661,3.0042121,0.7703382600793864,0.08391330637018768,0.7536989018561108,0.05243339257325314
91,E15,"Lyon, France","Orange, France",204,False,45.7578137,4.8320114,44.1371311,4.8078783,0.7986245075791688,0.08433450842390074,0.7703382600793864,0.08391330637018768
92,E15,"Calais, France","Paris, France",291,False,50.9524769,1.8538446,48.8566969,2.3514616,0.8892884839513535,0.032355692090317266,0.8527102225539067,0.041040747154213894
93,E15,"Tarragona, Spain","Castellón de la Plana, Spain",188,False,41.1172364,1.2546057,40.0040266,-0.0633535745122635,0.7176311545008602,0.02189700027928822,0.6982019782253926,-0.001105728468146559
94,E15,"Gerona, Spain","Barcelona, Spain",102,False,41.9793006,2.8199439,41.3828939,2.1774322,0.7326770131544311,0.049217305776529725,0.722267752558477,0.038003361128943675
95,E15,"Doncaster, United Kingdom","London, United Kingdom",277,False,53.5227681,-1.1335312,51.5073219,-0.1276474,0.9341485281263897,-0.019783851614082346,0.8989723560395815,-0.0022278674116102096
96,E15,"Scotch Corner, United Kingdom","Doncaster, United Kingdom",118,False,54.22554745,-1.1913737360043632,53.5227681,-1.1335312,0.9464143416989151,-0.02079339431506185,0.9341485281263897,-0.019783851614082346
97,E15,"Newcastle upon Tyne, United Kingdom","Scotch Corner, United Kingdom",73,False,54.9738474,-1.6131572,54.22554745,-1.1913737360043632,0.9594746396189241,-0.028154904492252674,0.9464143416989151,-0.02079339431506185
98,E15,"London, United Kingdom","Folkestone, United Kingdom",112,False,51.5073219,-0.1276474,51.0791335,1.1794073,0.8989723560395815,-0.0022278674116102096,0.891499058640735,0.020584540607056518
99,E15,"Paris, France","Lyon, France",467,False,48.8566969,2.3514616,45.7578137,4.8320114,0.8527102225539067,0.041040747154213894,0.7986245075791688,0.08433450842390074
100,E15,"Edinburgh, United Kingdom","Newcastle upon Tyne, United Kingdom",183,False,55.9533456,-3.1883749,54.9738474,-1.6131572,0.9765701082262821,-0.055647639792944945,0.9594746396189241,-0.028154904492252674
101,E15,"Inverness, United Kingdom","Perth, United Kingdom",182,False,57.4790124,-4.225739,56.3957679,-3.4335463,1.003198017174648,-0.07375305887993266,0.9842918340455283,-0.059926687954668975
102,E15,"Folkestone, United Kingdom","Dover, United Kingdom",11,False,51.0791335,1.1794073,51.1251275,1.3134228,0.891499058640735,0.020584540607056518,0.8923018053768972,0.022923552330762976
103,E15,"Perth, United Kingdom","Edinburgh, United Kingdom",68,False,56.3957679,-3.4335463,55.9533456,-3.1883749,0.9842918340455283,-0.059926687954668975,0.9765701082262821,-0.055647639792944945
104,E15,"Murcia, Spain","Algeciras, Spain",525,False,37.9923795,-1.1305431,36.1311725,-5.4473991,0.6630921129421969,-0.019731699430703502,0.6306079227310308,-0.09507504996517585
105,E15,"Alicante, Spain","Murcia, Spain",80,False,38.3436365,-0.4881708,37.9923795,-1.1305431,0.6692227041128748,-0.008520187772094736,0.6630921129421969,-0.019731699430703502
106,E15,"Valencia, Spain","Alicante, Spain",173,False,39.4697065,-0.3763353,38.3436365,-0.4881708,0.6888763332208072,-0.006568290076480616,0.6692227041128748,-0.008520187772094736
107,E15,"Castellón de la Plana, Spain","Valencia, Spain",74,False,40.0040266,-0.0633535745122635,39.4697065,-0.3763353,0.6982019782253926,-0.001105728468146559,0.6888763332208072,-0.006568290076480616
108,E15,"Narbonne, France","Gerona, Spain",153,False,43.1837661,3.0042121,41.9793006,2.8199439,0.7536989018561108,0.05243339257325314,0.7326770131544311,0.049217305776529725
109,E15,"Barcelona, Spain","Tarragona, Spain",112,False,41.3828939,2.1774322,41.1172364,1.2546057,0.722267752558477,0.038003361128943675,0.7176311545008602,0.02189700027928822
110,E16,"Fagernes, Norway","Oslo, Norway",182,False,60.9862581,9.2363406,59.9133301,10.7389701,1.0644110023160611,0.16120455430562858,1.0456848760792237,0.1874303865182247
111,E16,"Bergen, Norway","Fagernes, Norway",365,False,60.3943055,5.3259192,60.9862581,9.2363406,1.0540794804303202,0.09295482573518239,1.0644110023160611,0.16120455430562858
112,E16,"Edinburgh, United Kingdom","Bergen, Norway",702,True,55.9533456,-3.1883749,60.3943055,5.3259192,0.9765701082262821,-0.055647639792944945,1.0540794804303202,0.09295482573518239
113,E16,"Glasgow, United Kingdom","Edinburgh, United Kingdom",75,False,55.8609825,-4.2488787,55.9533456,-3.1883749,0.9749580680239334,-0.0741569228328564,0.9765701082262821,-0.055647639792944945
114,E16,"Londonderry, United Kingdom","Belfast, United Kingdom",115,False,54.9978678,-7.3213056,54.5964411,-5.9302761,0.9598938746865702,-0.12778088826469894,0.9528876570661547,-0.1035028434973285
115,E16,"Belfast, United Kingdom","Glasgow, United Kingdom",239,True,54.5964411,-5.9302761,55.8609825,-4.2488787,0.9528876570661547,-0.1035028434973285,0.9749580680239334,-0.0741569228328564
116,E17,"Cambrai, France","Reims, France",147,False,50.1759602,3.2356613,49.2577886,4.031926,0.8757357108396325,0.056472943164359996,0.859710593321328,0.0703703838967649
117,E17,"Gent, Belgium","Kortrijk, Belgium",49,False,51.0538286,3.7250121,50.8276429,3.2659884,0.8910574048188471,0.06501372582162826,0.887109719632919,0.05700225091194157
118,E17,"Reims, France","Beaune, France",339,False,49.2577886,4.031926,47.0239064,4.8380426,0.859710593321328,0.0703703838967649,0.8207219938296336,0.084439772721747
119,E17,"Antwerpen, Belgium","Gent, Belgium",58,False,51.2211097,4.3997081,51.0538286,3.7250121,0.893977010790205,0.07678939247166391,0.8910574048188471,0.06501372582162826
120,E17,"Kortrijk, Belgium","Cambrai, France",104,False,50.8276429,3.2659884,50.1759602,3.2356613,0.887109719632919,0.05700225091194157,0.8757357108396325,0.056472943164359996
121,E18,"Larne, United Kingdom","Stranraer, United Kingdom",70,True,54.8508458,-5.8183116,54.9044332,-5.026204,0.9573278567137031,-0.10154869432697931,0.9582631332812863,-0.08772380867690907
122,E18,"Kapellskär, Sweden","Mariehamn, Finland",65,True,59.7203711,19.0607758,60.102423,19.94126,1.0423171062078678,0.33267329569445614,1.048985169776368,0.3480406439962444
123,E18,"Örebro, Sweden","Arboga, Sweden",42,False,59.2747287,15.2151181,59.394187,15.8396643,1.034539179041378,0.26555390692478387,1.0366241196952133,0.2764542944456029
124,E18,"Oslo, Norway","Örebro, Sweden",336,False,59.9133301,10.7389701,59.2747287,15.2151181,1.0456848760792237,0.1874303865182247,1.034539179041378,0.26555390692478387
125,E18,"Newcastle upon Tyne, United Kingdom","Kristiansand, Norway",684,True,54.9738474,-1.6131572,58.14615,7.9957333,0.9594746396189241,-0.028154904492252674,1.0148417648585009,0.13955187219635154
126,E18,"Carlisle, United Kingdom","Newcastle upon Tyne, United Kingdom",114,False,54.8948478,-2.9362311,54.9738474,-1.6131572,0.9580958364911657,-0.05124690029445488,0.9594746396189241,-0.028154904492252674
127,E18,"Gretna, United Kingdom","Carlisle, United Kingdom",16,False,54.9953097,-3.0669404,54.8948478,-2.9362311,0.9598492274189749,-0.0535282079424319,0.9580958364911657,-0.05124690029445488
128,E18,"Stranraer, United Kingdom","Gretna, United Kingdom",153,False,54.9044332,-5.026204,54.9953097,-3.0669404,0.9582631332812863,-0.08772380867690907,0.9598492274189749,-0.0535282079424319
129,E18,"Turku, Finland","Helsinki, Finland",167,False,60.4517531,22.2670522,60.1674881,24.9427473,1.0550821301976887,0.38863337560344685,1.0501207699995072,0.43533306487792583
130,E18,"Kristiansand, Norway","Oslo, Norway",323,False,58.14615,7.9957333,59.9133301,10.7389701,1.0148417648585009,0.13955187219635154,1.0456848760792237,0.1874303865182247
131,E18,"Craigavon, United Kingdom","Belfast, United Kingdom",38,False,54.4507201,-6.3921622,54.5964411,-5.9302761,0.950344345826856,-0.11156427671152427,0.9528876570661547,-0.1035028434973285
132,E18,"Västeras, Sweden","Stockholm, Sweden",108,False,59.6110992,16.5463679,59.3251172,18.0710935,1.0404099517729577,0.28878859910129984,1.0354186242715193,0.3154000810107459
133,E18,"Mariehamn, Finland","Naantali, Finland",154,True,60.102423,19.94126,60.4688687,22.0291149,1.048985169776368,0.3480406439962444,1.0553808537711433,0.3844805863051414
134,E18,"Naantali, Finland","Turku, Finland",15,False,60.4688687,22.0291149,60.4517531,22.2670522,1.0553808537711433,0.3844805863051414,1.0550821301976887,0.38863337560344685
135,E18,"Arboga, Sweden","Västeras, Sweden",57,False,59.394187,15.8396643,59.6110992,16.5463679,1.0366241196952133,0.2764542944456029,1.0404099517729577,0.28878859910129984
136,E18,"Helsinki, Finland","Vaalimaa, Finland",191,False,60.1674881,24.9427473,60.598218,27.8124767,1.0501207699995072,0.43533306487792583,1.0576384249412931,0.48541929154920715
137,E18,"Vaalimaa, Finland","Sankt-Peterburg, Russian Federation",205,False,60.598218,27.8124767,59.938732,30.316229,1.0576384249412931,0.48541929154920715,1.0461282228704858,0.529118012838588
138,E18,"Stockholm, Sweden","Kapellskär, Sweden",93,False,59.3251172,18.0710935,59.7203711,19.0607758,1.0354186242715193,0.3154000810107459,1.0423171062078678,0.33267329569445614
139,E18,"Belfast, United Kingdom","Larne, United Kingdom",36,False,54.5964411,-5.9302761,54.8508458,-5.8183116,0.9528876570661547,-0.1035028434973285,0.9573278567137031,-0.10154869432697931
140,E19,"Antwerpen, Belgium","Bruxelles, Belgium",49,False,51.2211097,4.3997081,50.8436709,4.3674366933879565,0.893977010790205,0.07678939247166391,0.8873894610054285,0.0762261501720339
141,E19,"Den Haag, Netherlands","Rotterdam, Netherlands",26,False,52.0799838,4.3113461,51.9228934,4.4631786,0.9089671916953079,0.07524718463801669,0.9062254469920331,0.07789716167455099
142,E19,"Breda, Netherlands","Antwerpen, Belgium",58,False,51.5887845,4.7760237,51.2211097,4.3997081,0.9003941466268167,0.0833573387182819,0.893977010790205,0.07678939247166391
143,E19,"Rotterdam, Netherlands","Breda, Netherlands",46,False,51.9228934,4.4631786,51.5887845,4.7760237,0.9062254469920331,0.07789716167455099,0.9003941466268167,0.0833573387182819
144,E19,"Bruxelles, Belgium","Mons, Belgium",66,False,50.8436709,4.3674366933879565,50.4549568,3.951958,0.8873894610054285,0.0762261501720339,0.880605120111502,0.06897467900053006
145,E19,"Valenciennes, France","Paris, France",206,False,50.3579317,3.5234846,48.8566969,2.3514616,0.8789117126594254,0.0614964074133154,0.8527102225539067,0.041040747154213894
146,E19,"Amsterdam, Netherlands","Den Haag, Netherlands",59,False,52.3727598,4.8936041,52.0799838,4.3113461,0.9140770968661269,0.08540950383409385,0.9089671916953079,0.07524718463801669
147,E19,"Mons, Belgium","Valenciennes, France",42,False,50.4549568,3.951958,50.3579317,3.5234846,0.880605120111502,0.06897467900053006,0.8789117126594254,0.0614964074133154
148,E20,"Leeds, United Kingdom","Kingston upon Hull, United Kingdom",104,False,53.7974185,-1.5437941,53.7435722,-0.3394758,0.938942081898309,-0.02694429001786259,0.9380022866732924,-0.005924970440841767
149,E20,"Kingston upon Hull, United Kingdom","Esbjerg, Denmark",597,True,53.7435722,-0.3394758,55.4664892,8.4520751,0.9380022866732924,-0.005924970440841767,0.9680728610618756,0.147516539120829
150,E20,"Örebro, Sweden","Arboga, Sweden",42,False,59.2747287,15.2151181,59.394187,15.8396643,1.034539179041378,0.26555390692478387,1.0366241196952133,0.2764542944456029
151,E20,"Göteborg, Sweden","Örebro, Sweden",287,False,57.7072326,11.9670171,59.2747287,15.2151181,1.0071812110842078,0.20886385003746352,1.034539179041378,0.26555390692478387
152,E20,"Helsingborg, Sweden","Halmstad, Sweden",84,False,56.0441984,12.7040684,56.6739826,12.8574827,0.978155788720938,0.22172782197856802,0.9891475965879765,0.22440540663321032
153,E20,"Eskilstuna, Sweden","Södertälje, Sweden",81,False,59.3717379,16.5051474,59.1964289,17.6271663,1.0362323089861039,0.28806916565698154,1.033172589727725,0.30765208973158653
154,E20,"Stockholm, Sweden","Tallinn, Estonia",333,True,59.3251172,18.0710935,59.4372155,24.7453688,1.0354186242715193,0.3154000810107459,1.0373751086924077,0.43188816018027826
155,E20,"Manchester, United Kingdom","Bradford, United Kingdom",63,False,53.4794892,-2.2451148,53.7944229,-1.7519186,0.9333931688247483,-0.03918464534525399,0.9388897988152364,-0.03057674779692953
156,E20,"København, Denmark","Malmö, Sweden",38,True,55.6867243,12.5700724,55.6052931,13.0001566,0.9719166886853345,0.21938915059406566,0.9704954461314844,0.22689553594487147
157,E20,"Halmstad, Sweden","Göteborg, Sweden",136,False,56.6739826,12.8574827,57.7072326,11.9670171,0.9891475965879765,0.22440540663321032,1.0071812110842078,0.20886385003746352
158,E20,"Malmö, Sweden","Helsingborg, Sweden",66,False,55.6052931,13.0001566,56.0441984,12.7040684,0.9704954461314844,0.22689553594487147,0.978155788720938,0.22172782197856802
159,E20,"Tallinn, Estonia","Sankt-Peterburg, Russian Federation",367,False,59.4372155,24.7453688,59.938732,30.316229,1.0373751086924077,0.43188816018027826,1.0461282228704858,0.529118012838588
160,E20,"Bradford, United Kingdom","Leeds, United Kingdom",25,False,53.7944229,-1.7519186,53.7974185,-1.5437941,0.9388897988152364,-0.03057674779692953,0.938942081898309,-0.02694429001786259
161,E20,"Køge, Denmark","København, Denmark",45,False,55.4565009,12.1818964,55.6867243,12.5700724,0.9678985323401987,0.21261420131684414,0.9719166886853345,0.21938915059406566
162,E20,"Middelfart, Denmark","Nyborg, Denmark",77,False,55.4470245,9.93699440734142,55.3098281,10.7976604,0.9677331379589625,0.17343327016037036,0.9653386090570795,0.18845472549220793
163,E20,"Kolding, Denmark","Middelfart, Denmark",30,False,55.4894999,9.47905,55.4470245,9.93699440734142,0.9684744735400642,0.16544063246116852,0.9677331379589625,0.17343327016037036
164,E20,"Esbjerg, Denmark","Kolding, Denmark",75,False,55.4664892,8.4520751,55.4894999,9.47905,0.9680728610618756,0.147516539120829,0.9684744735400642,0.16544063246116852
165,E20,"Liverpool, United Kingdom","Manchester, United Kingdom",55,False,53.4071991,-2.99168,53.4794892,-2.2451148,0.9321314685631522,-0.05221466616606396,0.9333931688247483,-0.03918464534525399
166,E20,"Nyborg, Denmark","Korsør, Denmark",27,True,55.3098281,10.7976604,55.3266045,11.1425876,0.9653386090570795,0.18845472549220793,0.9656314124737111,0.1944748408118929
167,E20,"Södertälje, Sweden","Stockholm, Sweden",32,False,59.1964289,17.6271663,59.3251172,18.0710935,1.033172589727725,0.30765208973158653,1.0354186242715193,0.3154000810107459
168,E20,"Limerick, Ireland","Portlaoise, Ireland",110,False,52.661252,-8.6301239,53.0340093,-7.3000591,0.9191122356224489,-0.15062407691005383,0.9256180778182931,-0.12741006688517398
169,E20,"Shannon, Ireland","Limerick, Ireland",22,False,52.7104544,-8.8788366,52.661252,-8.6301239,0.9199709795023322,-0.15496493241657874,0.9191122356224489,-0.15062407691005383
170,E20,"Dublin, Ireland","Liverpool, United Kingdom",264,True,53.3497645,-6.2602732,53.4071991,-2.99168,0.9311290456885863,-0.10926237941436147,0.9321314685631522,-0.05221466616606396
171,E20,"Arboga, Sweden","Eskilstuna, Sweden",44,False,59.394187,15.8396643,59.3717379,16.5051474,1.0366241196952133,0.2764542944456029,1.0362323089861039,0.28806916565698154
172,E20,"Korsør, Denmark","Køge, Denmark",74,False,55.3266045,11.1425876,55.4565009,12.1818964,0.9656314124737111,0.1944748408118929,0.9678985323401987,0.21261420131684414
173,E20,"Portlaoise, Ireland","Dublin, Ireland",89,False,53.0340093,-7.3000591,53.3497645,-6.2602732,0.9256180778182931,-0.12741006688517398,0.9311290456885863,-0.10926237941436147
174,E21,"Dijon, France","Genève, Switzerland",186,False,47.3215806,5.0414701,46.2017559,6.1466014,0.8259173887178738,0.08799025238584778,0.806372760657716,0.10727843223769298
175,E21,"Metz, France","Nancy, France",58,False,49.1196964,6.1763552,48.6937223,6.1834097,0.8573004297600056,0.10779773401267286,0.849865779186786,0.10792085826475482
176,E21,"Nancy, France","Dijon, France",213,False,48.6937223,6.1834097,47.3215806,5.0414701,0.849865779186786,0.10792085826475482,0.8259173887178738,0.08799025238584778
177,E22,"Doncaster, United Kingdom","Immingham, United Kingdom",74,False,53.5227681,-1.1335312,53.612277,-0.21114715377789664,0.9341485281263897,-0.019783851614082346,0.9357107531412279,-0.00368521303963908
178,E22,"Amsterdam, Netherlands","Groningen, Netherlands",200,False,52.3727598,4.8936041,53.2190652,6.5680077,0.9140770968661269,0.08540950383409385,0.9288479125735345,0.11463335966133996
179,E22,"Saßnitz, Germany","Trelleborg, Sweden",111,True,54.516728,13.644119,55.37592,13.1461522,0.9514964010141832,0.2381348000839162,0.9664921303209784,0.22944363985829608
180,E22,"Kalmar, Sweden","Norrköping, Sweden",254,False,57.02784235,16.575243899947836,58.5909124,16.1903511,0.9953236143157604,0.2892925803751953,1.0226043331275727,0.2825749337488857
181,E22,"Holyhead, United Kingdom","Chester, United Kingdom",139,False,53.3106715,-4.6330966,53.1908873,-2.8908955,0.9304467441241041,-0.08086279023295471,0.9283561154422367,-0.05045564480608773
182,E22,"Chester, United Kingdom","Warrington, United Kingdom",35,False,53.1908873,-2.8908955,53.3899497,-2.5943178,0.9283561154422367,-0.05045564480608773,0.9318304097391588,-0.045279387453095746
183,E22,"Manchester, United Kingdom","Leeds, United Kingdom",71,False,53.4794892,-2.2451148,53.7974185,-1.5437941,0.9333931688247483,-0.03918464534525399,0.938942081898309,-0.02694429001786259
184,E22,"Leeds, United Kingdom","Doncaster, United Kingdom",55,False,53.7974185,-1.5437941,53.5227681,-1.1335312,0.938942081898309,-0.02694429001786259,0.9341485281263897,-0.019783851614082346
185,E22,"Oldenburg, Germany","Bremen, Germany",51,False,53.1389753,8.2146017,53.0758196,8.8071646,0.9274500801209414,0.14337184640492348,0.9263478052145397,0.15371402003508938
186,E22,"Immingham, United Kingdom","Amsterdam, Netherlands",369,True,53.612277,-0.21114715377789664,52.3727598,4.8936041,0.9357107531412279,-0.00368521303963908,0.9140770968661269,0.08540950383409385
187,E22,"Hamburg, Germany","Lübeck, Germany",71,False,53.550341,10.000654,53.866444,10.684738,0.9346297660157128,0.17454433965274102,0.9401468041411445,0.18648385781295387
188,E22,"Lübeck, Germany","Rostock, Germany",131,False,53.866444,10.684738,54.0924445,12.1286127,0.9401468041411445,0.18648385781295387,0.9440912569772978,0.21168422531419925
189,E22,"Rostock, Germany","Stralsund, Germany",73,False,54.0924445,12.1286127,54.3096314,13.0820846,0.9440912569772978,0.21168422531419925,0.9478818834744975,0.22832544929444537
190,E22,"Stralsund, Germany","Saßnitz, Germany",51,False,54.3096314,13.0820846,54.516728,13.644119,0.9478818834744975,0.22832544929444537,0.9514964010141832,0.2381348000839162
191,E22,"Trelleborg, Sweden","Malmö, Sweden",27,False,55.37592,13.1461522,55.6052931,13.0001566,0.9664921303209784,0.22944363985829608,0.9704954461314844,0.22689553594487147
192,E22,"Bremen, Germany","Hamburg, Germany",124,False,53.0758196,8.8071646,53.550341,10.000654,0.9263478052145397,0.15371402003508938,0.9346297660157128,0.17454433965274102
193,E22,"Warrington, United Kingdom","Manchester, United Kingdom",29,False,53.3899497,-2.5943178,53.4794892,-2.2451148,0.9318304097391588,-0.045279387453095746,0.9333931688247483,-0.03918464534525399
194,E22,"Malmö, Sweden","Kalmar, Sweden",295,False,55.6052931,13.0001566,57.02784235,16.575243899947836,0.9704954461314844,0.22689553594487147,0.9953236143157604,0.2892925803751953
195,E22,"Groningen, Netherlands","Oldenburg, Germany",131,False,53.2190652,6.5680077,53.1389753,8.2146017,0.9288479125735345,0.11463335966133996,0.9274500801209414,0.14337184640492348
196,E23,"Vallorbe, Switzerland","Lausanne, Switzerland",48,False,46.7120498,6.3790105,46.5218269,6.6327025,0.8152790693655588,0.11133473624428974,0.8119590534478667,0.1157624969302592
197,E23,"Besançon, France","Vallorbe, Switzerland",86,False,47.2380222,6.0243622,46.7120498,6.3790105,0.8244590195201754,0.10514495572268913,0.8152790693655588,0.11133473624428974
198,E23,"Nancy, France","Besançon, France",199,False,48.6937223,6.1834097,47.2380222,6.0243622,0.849865779186786,0.10792085826475482,0.8244590195201754,0.10514495572268913
199,E23,"Metz, France","Nancy, France",58,False,49.1196964,6.1763552,48.6937223,6.1834097,0.8573004297600056,0.10779773401267286,0.849865779186786,0.10792085826475482
200,E24,"Birmingham, United Kingdom","Cambridge, United Kingdom",163,False,52.4796992,-1.9026911,52.2034823,0.1235817,0.9159435414962341,-0.033208224343392684,0.9111226471415822,0.0021569075602118765
201,E24,"Cambridge, United Kingdom","Ipswich, United Kingdom",91,False,52.2034823,0.1235817,52.0579495,1.1526345,0.9111226471415822,0.0021569075602118765,0.9085826206119358,0.02011726709707858
202,E25,"Rotterdam, Netherlands","Gouda, Netherlands",25,False,51.9228934,4.4631786,52.018119350000006,4.711122134697802,0.9062254469920331,0.07789716167455099,0.9078874533528727,0.08222459271406043
203,E25,"Gouda, Netherlands","Utrecht, Netherlands",35,False,52.018119350000006,4.711122134697802,52.080985600000005,5.12768396945229,0.9078874533528727,0.08222459271406043,0.9089846764037546,0.08949496826867481
204,E25,"'s-Hertogenbosch, Netherlands","Eindhoven, Netherlands",38,False,51.6889351,5.3031044,51.4392648,5.478633,0.9021421043446645,0.09255663235699838,0.8977845355652224,0.0956201843584145
205,E25,"Eindhoven, Netherlands","Maastricht, Netherlands",86,False,51.4392648,5.478633,50.8512438,5.6909768,0.8977845355652224,0.0956201843584145,0.8875216330443527,0.09932628281461081
206,E25,"Utrecht, Netherlands","'s-Hertogenbosch, Netherlands",59,False,52.080985600000005,5.12768396945229,51.6889351,5.3031044,0.9089846764037546,0.08949496826867481,0.9021421043446645,0.09255663235699838
207,E25,"Hoek van Holland, Netherlands","Rotterdam, Netherlands",33,False,51.9771615,4.1314526,51.9228934,4.4631786,0.9071726040158347,0.07210745076008028,0.9062254469920331,0.07789716167455099
208,E25,"Ivrea, Italy","Vercelli, Italy",59,False,45.4673791,7.874797,45.55538265,8.346283678327271,0.7935554675474562,0.1374411355761719,0.7950914192483995,0.14567013049227417
209,E25,"Liège, Belgium","Bastogne, Belgium",90,False,50.6451381,5.5734203,50.0023102,5.7173386,0.8839244099722251,0.09727453483249013,0.8727049465935444,0.09978638302136306
210,E25,"Mont-Blanc, France","Aosta, Italy",46,False,46.0926274,5.0775307,45.7370885,7.3196649,0.8044681090249534,0.08861962858609243,0.7982627846010345,0.1277522526476615
211,E25,"Bern, Switzerland","Lausanne, Switzerland",103,False,46.9482713,7.4514512,46.5218269,6.6327025,0.8194019123045584,0.1300523574916825,0.8119590534478667,0.1157624969302592
212,E25,"Vercelli, Italy","Alessandria, Italy",55,False,45.55538265,8.346283678327271,44.83495335,8.745030418605868,0.7950914192483995,0.14567013049227417,0.7825175559355616,0.15262957399173038
213,E25,"Lausanne, Switzerland","Genève, Switzerland",64,False,46.5218269,6.6327025,46.2017559,6.1466014,0.8119590534478667,0.1157624969302592,0.806372760657716,0.10727843223769298
214,E25,"Bastogne, Belgium","Arlon, Belgium",38,False,50.0023102,5.7173386,49.6834601,5.8167711,0.8727049465935444,0.09978638302136306,0.8671399625282311,0.10152180752985235
215,E25,"Olten, Switzerland","Bern, Switzerland",67,False,47.3496571,7.903787,46.9482713,7.4514512,0.82640741608531,0.13794710652632505,0.8194019123045584,0.1300523574916825
216,E25,"Mulhouse, France","Basel, Switzerland",38,False,47.7467,7.3389275,47.5581077,7.5878261,0.8333371219619765,0.12808844844015613,0.8300455653830677,0.13243254851376052
217,E25,"Strasbourg, France","Mulhouse, France",108,False,48.584614,7.7507127,47.7467,7.3389275,0.8479614801105323,0.1352754559911395,0.8333371219619765,0.12808844844015613
218,E25,"Saint-Avold, France","Strasbourg, France",124,False,49.1043397,6.7071754,48.584614,7.7507127,0.8570324047827644,0.11706229423876767,0.8479614801105323,0.1352754559911395
219,E25,"Luxembourg, Luxembourg","Metz, France",63,False,49.6112768,6.129799,49.1196964,6.1763552,0.8658801262782763,0.1069851750354559,0.8573004297600056,0.10779773401267286
220,E25,"Basel, Switzerland","Olten, Switzerland",47,False,47.5581077,7.5878261,47.3496571,7.903787,0.8300455653830677,0.13243254851376052,0.82640741608531,0.13794710652632505
221,E25,"Metz, France","Saint-Avold, France",49,False,49.1196964,6.1763552,49.1043397,6.7071754,0.8573004297600056,0.10779773401267286,0.8570324047827644,0.11706229423876767
222,E25,"Maastricht, Netherlands","Liège, Belgium",40,False,50.8512438,5.6909768,50.6451381,5.5734203,0.8875216330443527,0.09932628281461081,0.8839244099722251,0.09727453483249013
223,E25,"Aosta, Italy","Ivrea, Italy",70,False,45.7370885,7.3196649,45.4673791,7.874797,0.7982627846010345,0.1277522526476615,0.7935554675474562,0.1374411355761719
224,E25,"Genève, Switzerland","Mont-Blanc, France",91,False,46.2017559,6.1466014,46.0926274,5.0775307,0.806372760657716,0.10727843223769298,0.8044681090249534,0.08861962858609243
225,E25,"Arlon, Belgium","Luxembourg, Luxembourg",28,False,49.6834601,5.8167711,49.6112768,6.129799,0.8671399625282311,0.10152180752985235,0.8658801262782763,0.1069851750354559
226,E25,"Alessandria, Italy","Genova, Italy",90,False,44.83495335,8.745030418605868,44.40726,8.9338624,0.7825175559355616,0.15262957399173038,0.775052898789177,0.15592531380012267
227,E26,"Hamburg, Germany","Berlin, Germany",283,False,53.550341,10.000654,52.5170365,13.3888599,0.9346297660157128,0.17454433965274102,0.9165952003150392,0.23367968834323874
228,E27,"Martigny, Switzerland","Grand-Saint-Bernard, Switzerland",39,False,46.103115,7.0727354,46.1135769,7.0886954,0.8046511521755856,0.12344251985235814,0.8048337467765999,0.12372107440097645
229,E27,"Grand-Saint-Bernard, Switzerland","Aosta, Italy",27,False,46.1135769,7.0886954,45.7370885,7.3196649,0.8048337467765999,0.12372107440097645,0.7982627846010345,0.1277522526476615
230,E27,"Belfort, France","Bern, Switzerland",133,False,47.6379599,6.8628942,46.9482713,7.4514512,0.8314392491880286,0.11978010000602224,0.8194019123045584,0.1300523574916825
231,E27,"Bern, Switzerland","Martigny, Switzerland",129,False,46.9482713,7.4514512,46.103115,7.0727354,0.8194019123045584,0.1300523574916825,0.8046511521755856,0.12344251985235814
232,E28,"Koszalin, Poland","Gdańsk, Poland",205,False,54.20727105,16.217530768271565,54.36143405,18.62821847557274,0.9460953583435038,0.28304930844982434,0.9487860102782558,0.3251237461795832
233,E28,"Berlin, Germany","Szczecin, Poland",153,False,52.5170365,13.3888599,53.4301818,14.5509623,0.9165952003150392,0.23367968834323874,0.9325325923491503,0.25396220146856685
234,E28,"Szczecin, Poland","Goleniów, Poland",38,False,53.4301818,14.5509623,53.5656704,14.8300626,0.9325325923491503,0.25396220146856685,0.934897314518068,0.2588334206468708
235,E28,"Goleniów, Poland","Koszalin, Poland",117,False,53.5656704,14.8300626,54.20727105,16.217530768271565,0.934897314518068,0.2588334206468708,0.9460953583435038,0.28304930844982434
236,E29,"Saarbrücken, Germany","Sarreguemines, France",19,False,49.234362,6.996379,49.1094836,7.0708865,0.8593017220187804,0.12210984926738835,0.8571221827741579,0.12341025045981803
237,E29,"Luxembourg, Luxembourg","Saarbrücken, Germany",97,False,49.6112768,6.129799,49.234362,6.996379,0.8658801262782763,0.1069851750354559,0.8593017220187804,0.12210984926738835
238,E29,"Köln, Germany","Luxembourg, Luxembourg",207,False,50.938361,6.959974,49.6112768,6.129799,0.8890421150194713,0.12147446215319982,0.8658801262782763,0.1069851750354559
239,E30,"Den Haag, Netherlands","Gouda, Netherlands",32,False,52.0799838,4.3113461,52.018119350000006,4.711122134697802,0.9089671916953079,0.07524718463801669,0.9078874533528727,0.08222459271406043
240,E30,"Newport, United Kingdom","Bristol, United Kingdom",49,False,51.5882332,-2.9974967,51.4538022,-2.5972985,0.9003845246266503,-0.052316186732664714,0.8980382610599018,-0.045331410482109945
241,E30,"Bristol, United Kingdom","London, United Kingdom",192,False,51.4538022,-2.5972985,51.5073219,-0.1276474,0.8980382610599018,-0.045331410482109945,0.8989723560395815,-0.0022278674116102096
242,E30,"Swansea, United Kingdom","Cardiff, United Kingdom",65,False,51.6195955,-3.9459248,51.4816546,-3.1791934,0.9009319000226487,-0.06886937979609874,0.8985243771444843,-0.05548739238767309
243,E30,"Fishguard, United Kingdom","Swansea, United Kingdom",119,False,51.9938353,-4.97681,51.6195955,-3.9459248,0.9074636167246537,-0.086861720746179,0.9009319000226487,-0.06886937979609874
244,E30,"Felixstowe, United Kingdom","Hoek van Holland, Netherlands",207,True,51.96522105,1.3463637835284847,51.9771615,4.1314526,0.9069642038491648,0.02349848095218026,0.9071726040158347,0.07210745076008028
245,E30,"Cork, Ireland","Waterford, Ireland",135,False,51.897077,-8.4654674,52.2609997,-7.1119081,0.9057748658110212,-0.1477502788502438,0.9121265151487687,-0.12412621244425413
246,E30,"Gouda, Netherlands","Utrecht, Netherlands",35,False,52.018119350000006,4.711122134697802,52.080985600000005,5.12768396945229,0.9078874533528727,0.08222459271406043,0.9089846764037546,0.08949496826867481
247,E30,"Waterford, Ireland","Wexford, Ireland",61,False,52.2609997,-7.1119081,52.46018745,-6.606515459159162,0.9121265151487687,-0.12412621244425413,0.9156029972159081,-0.11530544684623235
248,E30,"Colchester, United Kingdom","Ipswich, United Kingdom",32,False,51.8896903,0.8994651,52.0579495,1.1526345,0.905645943575164,0.015698627501780048,0.9085826206119358,0.02011726709707858
249,E30,"Ipswich, United Kingdom","Felixstowe, United Kingdom",22,False,52.0579495,1.1526345,51.96522105,1.3463637835284847,0.9085826206119358,0.02011726709707858,0.9069642038491648,0.02349848095218026
250,E30,"Rosslare, Ireland","Fishguard, United Kingdom",113,True,52.2735675,-6.3869031,51.9938353,-4.97681,0.9123458646385009,-0.11147248810083264,0.9074636167246537,-0.086861720746179
251,E30,"Utrecht, Netherlands","Amersfoort, Netherlands",25,False,52.080985600000005,5.12768396945229,52.163773899999995,5.3965879493517015,0.9089846764037546,0.08949496826867481,0.9104296048208833,0.09418822808963619
252,E30,"Hoek van Holland, Netherlands","Den Haag, Netherlands",27,False,51.9771615,4.1314526,52.0799838,4.3113461,0.9071726040158347,0.07210745076008028,0.9089671916953079,0.07524718463801669
253,E30,"Penza, Russian Federation","Samara, Russian Federation",432,False,53.200001,45.0,53.198627,50.113987,0.9285151795142759,0.7853981633974483,0.9284911986903535,0.8746540744516356
254,E30,"Wexford, Ireland","Rosslare, Ireland",19,False,52.46018745,-6.606515459159162,52.2735675,-6.3869031,0.9156029972159081,-0.11530544684623235,0.9123458646385009,-0.11147248810083264
255,E30,"Oldenzaal, Netherlands","Osnabrück, Germany",83,False,52.30853685,6.914603743122237,52.2719595,8.047635,0.9129561949332833,0.12068260178820724,0.9123177997441289,0.14045772774873386
256,E30,"Warszawa, Poland","Brėst, Belarus",197,False,52.2319581,21.0067249,52.093751,23.6851851,0.9116196436087216,0.36663651456567653,0.9092074746640885,0.4133844639393024
257,E30,"Rjazan, Russian Federation","Penza, Russian Federation",453,False,54.6295687,39.7425039,53.200001,45.0,0.9534658427594382,0.6936375460416873,0.9285151795142759,0.7853981633974483
258,E30,"Cardiff, United Kingdom","Newport, United Kingdom",23,False,51.4816546,-3.1791934,51.5882332,-2.9974967,0.8985243771444843,-0.05548739238767309,0.9003845246266503,-0.052316186732664714
259,E30,"Smolensk, Russian Federation","Moskva, Russian Federation",401,False,54.77897005,32.04718121915615,55.7504461,37.6174943,0.9560733882238627,0.5593288282575654,0.9730288439006318,0.6565491318851995
260,E30,"Minsk, Belarus","Smolensk, Russian Federation",353,False,53.902334,27.5618791,54.77897005,32.04718121915615,0.9407732028096851,0.48104553833161146,0.9560733882238627,0.5593288282575654
261,E30,"Brėst, Belarus","Minsk, Belarus",348,False,52.093751,23.6851851,53.902334,27.5618791,0.9092074746640885,0.4133844639393024,0.9407732028096851,0.48104553833161146
262,E30,"Amersfoort, Netherlands","Oldenzaal, Netherlands",116,False,52.163773899999995,5.3965879493517015,52.30853685,6.914603743122237,0.9104296048208833,0.09418822808963619,0.9129561949332833,0.12068260178820724
263,E30,"Łowicz, Poland","Warszawa, Poland",81,False,52.1012259,19.9474623726871,52.2319581,21.0067249,0.9093379362803459,0.34814889582107006,0.9116196436087216,0.36663651456567653
264,E30,"Poznań, Poland","Łowicz, Poland",229,False,52.4006632,16.91973259178088,52.1012259,19.9474623726871,0.9145641030686278,0.29530504228356996,0.9093379362803459,0.34814889582107006
265,E30,"Świebodzin, Poland","Poznań, Poland",111,False,52.2498357,15.5324973,52.4006632,16.91973259178088,0.911931666591076,0.2710932189421294,0.9145641030686278,0.29530504228356996
266,E30,"Berlin, Germany","Świebodzin, Poland",187,False,52.5170365,13.3888599,52.2498357,15.5324973,0.9165952003150392,0.23367968834323874,0.911931666591076,0.2710932189421294
267,E30,"Osnabrück, Germany","Bad Oeynhausen, Germany",60,False,52.2719595,8.047635,52.2014399,8.7981244,0.9123177997441289,0.14045772774873386,0.9110870005369394,0.15355623878005062
268,E30,"Magdeburg, Germany","Berlin, Germany",160,False,52.1315889,11.6399609,52.5170365,13.3888599,0.909867870601129,0.20315564250840243,0.9165952003150392,0.23367968834323874
269,E30,"Braunschweig, Germany","Magdeburg, Germany",101,False,52.2646577,10.5236066,52.1315889,11.6399609,0.9121903592928067,0.18367158435460593,0.909867870601129,0.20315564250840243
270,E30,"Hannover, Germany","Braunschweig, Germany",67,False,52.3744779,9.7385532,52.2646577,10.5236066,0.9141070833680055,0.16996981772062983,0.9121903592928067,0.18367158435460593
271,E30,"Moskva, Russian Federation","Rjazan, Russian Federation",192,False,55.7504461,37.6174943,54.6295687,39.7425039,0.9730288439006318,0.6565491318851995,0.9534658427594382,0.6936375460416873
272,E30,"London, United Kingdom","Colchester, United Kingdom",106,False,51.5073219,-0.1276474,51.8896903,0.8994651,0.8989723560395815,-0.0022278674116102096,0.905645943575164,0.015698627501780048
273,E30,"Bad Oeynhausen, Germany","Hannover, Germany",80,False,52.2014399,8.7981244,52.3744779,9.7385532,0.9110870005369394,0.15355623878005062,0.9141070833680055,0.16996981772062983
274,E31,"Koblenz, Germany","Bingen, Germany",66,False,50.3533278,7.5943951,48.1105902,9.2743638,0.8788313594459928,0.13254719919232402,0.8396882040677172,0.16186818433777286
275,E31,"Bingen, Germany","Ludwigshafen, Germany",82,False,48.1105902,9.2743638,49.4704113,8.4381568,0.8396882040677172,0.16186818433777286,0.8634215595008083,0.14727361895954866
276,E31,"Köln, Germany","Koblenz, Germany",99,False,50.938361,6.959974,50.3533278,7.5943951,0.8890421150194713,0.12147446215319982,0.8788313594459928,0.13254719919232402
277,E31,"Krefeld, Germany","Köln, Germany",60,False,51.3331205,6.5623343,50.938361,6.959974,0.8959319680479979,0.11453434015155732,0.8890421150194713,0.12147446215319982
278,E31,"Goch, Germany","Krefeld, Germany",63,False,51.6755765,6.1593045,51.3331205,6.5623343,0.9019089527912075,0.10750014315790309,0.8959319680479979,0.11453434015155732
279,E31,"Nijmegen, Netherlands","Goch, Germany",48,False,51.842574850000005,5.838960628748229,51.6755765,6.1593045,0.9048236238441055,0.10190908786597487,0.9019089527912075,0.10750014315790309
280,E31,"Gorinchem, Netherlands","Nijmegen, Netherlands",77,False,51.8421872,4.974600467260094,51.842574850000005,5.838960628748229,0.90481685807526,0.08682315712493702,0.9048236238441055,0.10190908786597487
281,E31,"Rotterdam, Netherlands","Gorinchem, Netherlands",43,False,51.9228934,4.4631786,51.8421872,4.974600467260094,0.9062254469920331,0.07789716167455099,0.90481685807526,0.08682315712493702
282,E32,"Colchester, United Kingdom","Harwich, United Kingdom",31,False,51.8896903,0.8994651,51.9445801,1.2898522,0.905645943575164,0.015698627501780048,0.9066039513109254,0.022512167754092403
283,E33,"Parma, Italy","La Spezia, Italy",124,False,44.8013678,10.3280833,44.23836595,9.691232634547537,0.7819313775069685,0.18025905900524125,0.7721051415296493,0.16914391804957887
284,E34,"Dortmund, Germany","Bad Oeynhausen, Germany",141,False,51.5142273,7.4652789,52.2014399,8.7981244,0.8990928780057488,0.13029369638466054,0.9110870005369394,0.15355623878005062
285,E34,"Oberhausen, Germany","Dortmund, Germany",50,False,51.4696137,6.8514435,51.5142273,7.4652789,0.8983142237945808,0.11958024758936413,0.8990928780057488,0.13029369638466054
286,E34,"Venlo, Netherlands","Oberhausen, Germany",54,False,51.39244885,6.1511724144122955,51.4696137,6.8514435,0.8969674430952734,0.10735821148934366,0.8983142237945808,0.11958024758936413
287,E34,"Zeebrugge, Belgium","Antwerpen, Belgium",101,False,51.3312211,3.207561,51.2211097,4.3997081,0.8958988172641854,0.055982500408561835,0.893977010790205,0.07678939247166391
288,E34,"Eindhoven, Netherlands","Venlo, Netherlands",57,False,51.4392648,5.478633,51.39244885,6.1511724144122955,0.8977845355652224,0.0956201843584145,0.8969674430952734,0.10735821148934366
289,E34,"Antwerpen, Belgium","Eindhoven, Netherlands",86,False,51.2211097,4.3997081,51.4392648,5.478633,0.893977010790205,0.07678939247166391,0.8977845355652224,0.0956201843584145
290,E35,"Como, Italy","Milano, Italy",46,False,45.939475900000005,9.149410145408947,45.4668,9.1905,0.8017951110955853,0.15968733165275928,0.7935453603457577,0.16040448490453885
291,E35,"Luzern, Switzerland","Altdorf, Switzerland",43,False,47.0505452,8.3054682,46.8820732,8.6413922,0.8211869285984139,0.1449577660096869,0.818246537500994,0.15082074584615635
292,E35,"Lugano, Switzerland","Chiasso, Switzerland",25,False,46.0050102,8.9520281,45.8355209,9.0290169,0.802938900403575,0.1562423650760522,0.7999807540716745,0.1575860731232116
293,E35,"Bellinzona, Switzerland","Lugano, Switzerland",27,False,46.1920538,9.0205888,46.0050102,8.9520281,0.8062034270683581,0.15743897502852428,0.802938900403575,0.1562423650760522
294,E35,"San Gottardo, Switzerland","Bellinzona, Switzerland",61,False,46.9495652,7.4435612,46.1920538,9.0205888,0.8194244951197501,0.12991465101370014,0.8062034270683581,0.15743897502852428
295,E35,"Altdorf, Switzerland","San Gottardo, Switzerland",50,False,46.8820732,8.6413922,46.9495652,7.4435612,0.818246537500994,0.15082074584615635,0.8194244951197501,0.12991465101370014
296,E35,"Piacenza, Italy","Parma, Italy",63,False,44.8476352,9.666531257696896,44.8013678,10.3280833,0.7827388959733057,0.16871279769375927,0.7819313775069685,0.18025905900524125
297,E35,"Olten, Switzerland","Luzern, Switzerland",53,False,47.3496571,7.903787,47.0505452,8.3054682,0.82640741608531,0.13794710652632505,0.8211869285984139,0.1449577660096869
298,E35,"Basel, Switzerland","Olten, Switzerland",47,False,47.5581077,7.5878261,47.3496571,7.903787,0.8300455653830677,0.13243254851376052,0.82640741608531,0.13794710652632505
299,E35,"Offenburg, Germany","Basel, Switzerland",126,False,48.4716556,7.944378,47.5581077,7.5878261,0.8459899841127474,0.1386555531230021,0.8300455653830677,0.13243254851376052
300,E35,"Karlsruhe, Germany","Offenburg, Germany",77,False,49.0068705,8.4034195,48.4716556,7.944378,0.8553312463234797,0.14666733870129564,0.8459899841127474,0.1386555531230021
301,E35,"Chiasso, Switzerland","Como, Italy",6,False,45.8355209,9.0290169,45.939475900000005,9.149410145408947,0.7999807540716745,0.1575860731232116,0.8017951110955853,0.15968733165275928
302,E35,"Oberhausen, Germany","Köln, Germany",73,False,51.4696137,6.8514435,50.938361,6.959974,0.8983142237945808,0.11958024758936413,0.8890421150194713,0.12147446215319982
303,E35,"Milano, Italy","Piacenza, Italy",66,False,45.4668,9.1905,44.8476352,9.666531257696896,0.7935453603457577,0.16040448490453885,0.7827388959733057,0.16871279769375927
304,E35,"Köln, Germany","Frankfurt am Main, Germany",195,False,50.938361,6.959974,50.1106444,8.6820917,0.8890421150194713,0.12147446215319982,0.8745957350760583,0.1515310861250718
305,E35,"Heidelberg, Germany","Karlsruhe, Germany",54,False,49.4093582,8.694724,49.0068705,8.4034195,0.8623559818872588,0.15175156135217144,0.8553312463234797,0.14666733870129564
306,E35,"Amsterdam, Netherlands","Utrecht, Netherlands",46,False,52.3727598,4.8936041,52.080985600000005,5.12768396945229,0.9140770968661269,0.08540950383409385,0.9089846764037546,0.08949496826867481
307,E35,"Utrecht, Netherlands","Arnhem, Netherlands",70,False,52.080985600000005,5.12768396945229,51.984257,5.9108573,0.9089846764037546,0.08949496826867481,0.9072964438529099,0.10316392150054222
308,E35,"Arnhem, Netherlands","Emmerich, Germany",34,False,51.984257,5.9108573,51.8322137,6.2428283,0.9072964438529099,0.10316392150054222,0.9046427876623123,0.10895790847168031
309,E35,"Frankfurt am Main, Germany","Heidelberg, Germany",88,False,50.1106444,8.6820917,49.4093582,8.694724,0.8745957350760583,0.1515310861250718,0.8623559818872588,0.15175156135217144
310,E35,"Arezzo, Italy","Roma, Italy",219,False,43.51720195,11.763879181253118,41.8933203,12.4829321,0.7595184552827968,0.2053184245196817,0.7311763738275786,0.21786826544789004
311,E35,"Firenze, Italy","Arezzo, Italy",79,False,43.7698712,11.2555757,43.51720195,11.763879181253118,0.7639283656138414,0.19644685517246552,0.7595184552827968,0.2053184245196817
312,E35,"Modena, Italy","Firenze, Italy",138,False,44.5384728,10.935960870530739,43.7698712,11.2555757,0.7773429941699379,0.1908685240600267,0.7639283656138414,0.19644685517246552
313,E35,"Parma, Italy","Modena, Italy",60,False,44.8013678,10.3280833,44.5384728,10.935960870530739,0.7819313775069685,0.18025905900524125,0.7773429941699379,0.1908685240600267
314,E35,"Emmerich, Germany","Oberhausen, Germany",72,False,51.8322137,6.2428283,51.4696137,6.8514435,0.9046427876623123,0.10895790847168031,0.8983142237945808,0.11958024758936413
315,E36,"Berlin, Germany","Lübbenau, Germany",95,False,52.5170365,13.3888599,51.8680114,13.9689477,0.9165952003150392,0.23367968834323874,0.9052675753919535,0.2438041304038891
316,E36,"Lübbenau, Germany","Cottbus, Germany",36,False,51.8680114,13.9689477,51.7567447,14.3357307,0.9052675753919535,0.2438041304038891,0.9033256051291249,0.25020570139423143
317,E36,"Cottbus, Germany","Legnica, Poland",152,False,51.7567447,14.3357307,51.204768900000005,16.174675034638256,0.9033256051291249,0.25020570139423143,0.8936918100277952,0.28230133479456543
318,E37,"Bremen, Germany","Osnabrück, Germany",121,False,53.0758196,8.8071646,52.2719595,8.047635,0.9263478052145397,0.15371402003508938,0.9123177997441289,0.14045772774873386
319,E37,"Osnabrück, Germany","Dortmund, Germany",123,False,52.2719595,8.047635,51.5142273,7.4652789,0.9123177997441289,0.14045772774873386,0.8990928780057488,0.13029369638466054
320,E37,"Dortmund, Germany","Köln, Germany",92,False,51.5142273,7.4652789,50.938361,6.959974,0.8990928780057488,0.13029369638466054,0.8890421150194713,0.12147446215319982
321,E39,"Bergen, Norway","Stavanger, Norway",188,False,60.3943055,5.3259192,59.1020129,5.712611357275702,1.0540794804303202,0.09295482573518239,1.031524719661162,0.09970387707128313
322,E39,"Hirtshals, Denmark","Hjørring, Denmark",18,False,57.5908031,9.9649737,57.457183,9.9855998,1.005149132962757,0.17392160093964165,1.0028170222709132,0.17428159429648724
323,E39,"Stavanger, Norway","Kristiansand, Norway",240,False,59.1020129,5.712611357275702,58.14615,7.9957333,1.031524719661162,0.09970387707128313,1.0148417648585009,0.13955187219635154
324,E39,"Kristiansand, Norway","Hirtshals, Denmark",135,True,58.14615,7.9957333,57.5908031,9.9649737,1.0148417648585009,0.13955187219635154,1.005149132962757,0.17392160093964165
325,E39,"Nørresundby, Denmark","Ålborg, Denmark",1,False,57.0607251,9.9241319,57.0462626,9.9215263,0.9958975265703706,0.17320877705720064,0.9956451083273009,0.17316330075821068
326,E39,"Trondheim, Norway","Ålesund, Norway",313,False,63.4305658,10.3951929,62.4711397,6.1551776,1.107072219612911,0.18143034248493764,1.0903270752383427,0.10742811516500252
327,E39,"Hjørring, Denmark","Nørresundby, Denmark",46,False,57.457183,9.9855998,57.0607251,9.9241319,1.0028170222709132,0.17428159429648724,0.9958975265703706,0.17320877705720064
328,E39,"Ålesund, Norway","Bergen, Norway",389,False,62.4711397,6.1551776,60.3943055,5.3259192,1.0903270752383427,0.10742811516500252,1.0540794804303202,0.09295482573518239
329,E40,"Calais, France","Oostende, Belgium",96,False,50.9524769,1.8538446,51.2258565,2.919496,0.8892884839513535,0.032355692090317266,0.8940598580791387,0.050954817698804375
330,E40,"Przemyśl, Poland","L'vov, Ukraine",95,False,49.78355525,22.78851130307014,49.841952,24.0315921,0.8688869524610087,0.3977345538665173,0.8699061680209726,0.41943040664125836
331,E40,"Legnica, Poland","Wrocław, Poland",79,False,51.204768900000005,16.174675034638256,51.1263106,16.97819633051261,0.8936918100277952,0.28230133479456543,0.8923224543672775,0.29632542701746445
332,E40,"Wrocław, Poland","Opole, Poland",95,False,51.1263106,16.97819633051261,50.678792900000005,17.929884436033525,0.8923224543672775,0.29632542701746445,0.8845117970413254,0.31293551791087165
333,E40,"Opole, Poland","Gliwice, Poland",72,False,50.678792900000005,17.929884436033525,50.30113145,18.662347227971978,0.8845117970413254,0.31293551791087165,0.8779203612809694,0.3257194052785478
334,E40,"Gliwice, Poland","Kraków, Poland",109,False,50.30113145,18.662347227971978,50.0469432,19.997153435836697,0.8779203612809694,0.3257194052785478,0.873483939398587,0.349016168481847
335,E40,"Kraków, Poland","Przemyśl, Poland",246,False,50.0469432,19.997153435836697,49.78355525,22.78851130307014,0.873483939398587,0.349016168481847,0.8688869524610087,0.3977345538665173
336,E40,"L'vov, Ukraine","Rovno, Ukraine",208,False,49.841952,24.0315921,50.6196175,26.2513165,0.8699061680209726,0.41943040664125836,0.8834789914751406,0.458171905908114
337,E40,"Rovno, Ukraine","Žitomir, Ukraine",184,False,50.6196175,26.2513165,50.2678904,28.699749,0.8834789914751406,0.458171905908114,0.8773401955116493,0.5009051145459501
338,E40,"Žitomir, Ukraine","Kiev, Ukraine",146,False,50.2678904,28.699749,50.4500336,30.5241361,0.8773401955116493,0.5009051145459501,0.8805191940617678,0.5327466762718611
339,E40,"Kiev, Ukraine","Charkov, Ukraine",471,False,50.4500336,30.5241361,49.8299582,36.3788957,0.8805191940617678,0.5327466762718611,0.869696836721147,0.6349315082046073
340,E40,"Charkov, Ukraine","Rostov-na-Donu, Russian Federation",479,False,49.8299582,36.3788957,47.2213858,39.7114196,0.869696836721147,0.6349315082046073,0.8241686595644966,0.6930950226610095
341,E40,"Oostende, Belgium","Gent, Belgium",64,False,51.2258565,2.919496,51.0538286,3.7250121,0.8940598580791387,0.050954817698804375,0.8910574048188471,0.06501372582162826
342,E40,"Görlitz, Germany","Legnica, Poland",101,False,51.1563185,14.991018,51.204768900000005,16.174675034638256,0.8928461910238867,0.2616426223257353,0.8936918100277952,0.28230133479456543
343,E40,"Dresden, Germany","Görlitz, Germany",109,False,51.0493286,13.7381437,51.1563185,14.991018,0.8909788650025073,0.2397758406771161,0.8928461910238867,0.2616426223257353
344,E40,"Olpe, Germany","Gießen, Germany",95,False,51.0297603,7.8424193,50.5862066,8.6742306,0.8906373337384893,0.13687603810694896,0.882895861264086,0.15139388404724324
345,E40,"Erfurt, Germany","Gera, Germany",88,False,50.9777974,11.0287364,50.8772301,12.0796208,0.8897304100446048,0.19248776251454633,0.8879751795397638,0.21082915535239144
346,E40,"Herleshausen, Germany","Eisenach, Germany",15,False,51.0072048,10.1671387,50.9747134,10.3193565,0.8902436659990556,0.17745004582193602,0.8896765840904733,0.1801067476120782
347,E40,"Eisenach, Germany","Erfurt, Germany",63,False,50.9747134,10.3193565,50.9777974,11.0287364,0.8896765840904733,0.1801067476120782,0.8897304100446048,0.19248776251454633
348,E40,"Aachen, Germany","Köln, Germany",72,False,50.776351,6.083862,50.938361,6.959974,0.8862145070983153,0.10618342313696726,0.8890421150194713,0.12147446215319982
349,E40,"Chemnitz, Germany","Dresden, Germany",76,False,50.8322608,12.9252977,51.0493286,13.7381437,0.8871903171924468,0.2255890016654503,0.8909788650025073,0.2397758406771161
350,E40,"Gera, Germany","Chemnitz, Germany",74,False,50.8772301,12.0796208,50.8322608,12.9252977,0.8879751795397638,0.21082915535239144,0.8871903171924468,0.2255890016654503
351,E40,"Bad Hersfeld, Germany","Herleshausen, Germany",42,False,50.8681341,9.7068481,51.0072048,10.1671387,0.8878164243910024,0.16941645933595578,0.8902436659990556,0.17745004582193602
352,E40,"Gent, Belgium","Bruxelles, Belgium",55,False,51.0538286,3.7250121,50.8436709,4.3674366933879565,0.8910574048188471,0.06501372582162826,0.8873894610054285,0.0762261501720339
353,E40,"Köln, Germany","Olpe, Germany",73,False,50.938361,6.959974,51.0297603,7.8424193,0.8890421150194713,0.12147446215319982,0.8906373337384893,0.13687603810694896
354,E40,"Liège, Belgium","Aachen, Germany",64,False,50.6451381,5.5734203,50.776351,6.083862,0.8839244099722251,0.09727453483249013,0.8862145070983153,0.10618342313696726
355,E40,"Bruxelles, Belgium","Liège, Belgium",94,False,50.8436709,4.3674366933879565,50.6451381,5.5734203,0.8873894610054285,0.0762261501720339,0.8839244099722251,0.09727453483249013
356,E40,"Gießen, Germany","Bad Hersfeld, Germany",98,False,50.5862066,8.6742306,50.8681341,9.7068481,0.882895861264086,0.15139388404724324,0.8878164243910024,0.16941645933595578
357,E41,"Würzburg, Germany","Stuttgart, Germany",145,False,49.79245,9.932966,48.7784485,9.1800132,0.8690421951346506,0.17336296118865108,0.8513445303394893,0.1602214557165407
358,E41,"Dortmund, Germany","Gießen, Germany",166,False,51.5142273,7.4652789,50.5862066,8.6742306,0.8990928780057488,0.13029369638466054,0.882895861264086,0.15139388404724324
359,E41,"Aschaffenburg, Germany","Würzburg, Germany",79,False,49.9740542,9.1493636,49.79245,9.932966,0.8722117863601008,0.15968651928212146,0.8690421951346506,0.17336296118865108
360,E41,"Gießen, Germany","Aschaffenburg, Germany",99,False,50.5862066,8.6742306,49.9740542,9.1493636,0.882895861264086,0.15139388404724324,0.8722117863601008,0.15968651928212146
361,E41,"Stuttgart, Germany","Schaffhausen, Switzerland",170,False,48.7784485,9.1800132,47.6960491,8.634513,0.8513445303394893,0.1602214557165407,0.8324530969878783,0.15070068115625315
362,E41,"Zürich, Switzerland","Altdorf, Switzerland",78,False,47.3744489,8.5410422,46.8820732,8.6413922,0.8268401146228058,0.14906930794178003,0.818246537500994,0.15082074584615635
363,E41,"Winterthur, Switzerland","Zürich, Switzerland",25,False,47.4991723,8.7291498,47.3744489,8.5410422,0.8290169486070877,0.1523524049098045,0.8268401146228058,0.14906930794178003
364,E41,"Schaffhausen, Switzerland","Winterthur, Switzerland",26,False,47.6960491,8.634513,47.4991723,8.7291498,0.8324530969878783,0.15070068115625315,0.8290169486070877,0.1523524049098045
365,E42,"Dunkerque, France","Lille, France",71,False,51.0347708,2.3772525,50.6365654,3.0635282,0.8907247834606604,0.041490883276266495,0.8837747881314395,0.05346865381769535
366,E42,"Charleroi, Belgium","Namur, Belgium",41,False,50.4120332,4.4436244,50.4665284,4.8661892,0.8798559619646931,0.07755587650195751,0.8808070826312259,0.08493102356498884
367,E42,"Liège, Belgium","Sankt-Vith, Belgium",87,False,50.6451381,5.5734203,50.2803881,6.1258953,0.8839244099722251,0.09727453483249013,0.877558321525576,0.10691704261744578
368,E42,"Frankfurt am Main, Germany","Aschaffenburg, Germany",41,False,50.1106444,8.6820917,49.9740542,9.1493636,0.8745957350760583,0.1515310861250718,0.8722117863601008,0.15968651928212146
369,E42,"Mons, Belgium","Charleroi, Belgium",51,False,50.4549568,3.951958,50.4120332,4.4436244,0.880605120111502,0.06897467900053006,0.8798559619646931,0.07755587650195751
370,E42,"Bingen, Germany","Wiesbaden, Germany",33,False,48.1105902,9.2743638,50.0820384,8.2416556,0.8396882040677172,0.16186818433777286,0.874096466190233,0.14384402603542876
371,E42,"Namur, Belgium","Liège, Belgium",61,False,50.4665284,4.8661892,50.6451381,5.5734203,0.8808070826312259,0.08493102356498884,0.8839244099722251,0.09727453483249013
372,E42,"Wittlich, Germany","Bingen, Germany",91,False,49.9850353,6.88844,48.1105902,9.2743638,0.8724034427105916,0.1202259583260782,0.8396882040677172,0.16186818433777286
373,E42,"Sankt-Vith, Belgium","Wittlich, Germany",85,False,50.2803881,6.1258953,49.9850353,6.88844,0.877558321525576,0.10691704261744578,0.8724034427105916,0.1202259583260782
374,E42,"Wiesbaden, Germany","Frankfurt am Main, Germany",41,False,50.0820384,8.2416556,50.1106444,8.6820917,0.874096466190233,0.14384402603542876,0.8745957350760583,0.1515310861250718
375,E42,"Lille, France","Mons, Belgium",77,False,50.6365654,3.0635282,50.4549568,3.951958,0.8837747881314395,0.05346865381769535,0.880605120111502,0.06897467900053006
376,E43,"Chur, Switzerland","San Bernardino, Switzerland",70,False,46.854747,9.5264904,46.4958739,9.1706046,0.8177696053389356,0.1662686236396316,0.8115060881470967,0.1600572446685376
377,E43,"San Bernardino, Switzerland","Bellinzona, Switzerland",43,False,46.4958739,9.1706046,46.1920538,9.0205888,0.8115060881470967,0.1600572446685376,0.8062034270683581,0.15743897502852428
378,E43,"Buchs, Switzerland","Chur, Switzerland",44,False,47.458087,8.4378662,46.854747,9.5264904,0.8282998748479181,0.14726854703274236,0.8177696053389356,0.1662686236396316
379,E43,"Sankt Margrethen, Switzerland","Buchs, Switzerland",37,False,47.4510277,9.6410249,47.458087,8.4378662,0.8281766668200321,0.16826762777175705,0.8282998748479181,0.14726854703274236
380,E43,"Bregenz, Austria","Sankt Margrethen, Switzerland",13,False,47.5025779,9.7472924,47.4510277,9.6410249,0.8290763875400936,0.17012234553462013,0.8281766668200321,0.16826762777175705
381,E43,"Würzburg, Germany","Ulm, Germany",195,False,49.79245,9.932966,48.3974003,9.9934336,0.8690421951346506,0.17336296118865108,0.8446939846406913,0.17441831989943
382,E43,"Lindau, Germany","Bregenz, Austria",9,False,47.550753,9.6926624,47.5025779,9.7472924,0.8299172016525712,0.16916887216425563,0.8290763875400936,0.17012234553462013
383,E43,"Ulm, Germany","Lindau, Germany",119,False,48.3974003,9.9934336,47.550753,9.6926624,0.8446939846406913,0.17441831989943,0.8299172016525712,0.16916887216425563
384,E44,"Amiens, France","Charleville-Mézières, France",198,False,49.8941708,2.2956951,49.7735712,4.7206939,0.8708175580124131,0.04006743811690048,0.8687126979158251,0.08239165153381194
385,E44,"Le Havre, France","Amiens, France",178,False,49.4938975,0.1079732,49.8941708,2.2956951,0.8638314710195901,0.0018844878439143416,0.8708175580124131,0.04006743811690048
386,E44,"Koblenz, Germany","Gießen, Germany",106,False,50.3533278,7.5943951,50.5862066,8.6742306,0.8788313594459928,0.13254719919232402,0.882895861264086,0.15139388404724324
387,E44,"Trier, Germany","Koblenz, Germany",126,False,49.7596208,6.6441878,50.3533278,7.5943951,0.8684692175038548,0.1159629532308385,0.8788313594459928,0.13254719919232402
388,E44,"Luxembourg, Luxembourg","Trier, Germany",46,False,49.6112768,6.129799,49.7596208,6.6441878,0.8658801262782763,0.1069851750354559,0.8684692175038548,0.1159629532308385
389,E44,"Charleville-Mézières, France","Luxembourg, Luxembourg",153,False,49.7735712,4.7206939,49.6112768,6.129799,0.8687126979158251,0.08239165153381194,0.8658801262782763,0.1069851750354559
390,E45,"Siracusa, Italy","Gela, Italy",154,False,37.0646139,15.2907196,37.0664363,14.2502445,0.6468995485354563,0.2668734020192303,0.6469313554157446,0.2487136857392131
391,E45,"Sicignano degli Alburni, Italy","Cosenza, Italy",222,False,40.5810419,15.300396408040797,39.596685300000004,16.333055599019605,0.7082727950447755,0.2670422941806257,0.6910925313610387,0.28506559711418683
392,E45,"Bologna, Italy","Cesena, Italy",95,False,44.4937577,11.3430308,44.136352,12.2422442,0.7765625684495794,0.19797323461512642,0.7703246622191843,0.21366746912317916
393,E45,"Cesena, Italy","Perugia, Italy",154,False,44.136352,12.2422442,43.1070321,12.402996209906487,0.7703246622191843,0.21366746912317916,0.7523596409078854,0.21647312097524593
394,E45,"Perugia, Italy","Fiano Romana, Italy",148,False,43.1070321,12.402996209906487,44.4866354,11.3401649,0.7523596409078854,0.21647312097524593,0.7764382608642646,0.19792321522409348
395,E45,"Göteborg, Sweden","Frederikshavn, Denmark",90,True,57.7072326,11.9670171,57.4412134,10.5336225,1.0071812110842078,0.20886385003746352,1.0025383001706867,0.1838463947871564
396,E45,"San Cesareo, Italy","Napoli, Italy",200,False,41.819196,12.8003335,40.8359336,14.2487826,0.7298826607368426,0.2234079649283296,0.7127214944457809,0.24868817077087818
397,E45,"Catánia, Italy","Siracusa, Italy",66,False,37.5022355,15.08738,37.0646139,15.2907196,0.6545374863333019,0.26332445649954206,0.6468995485354563,0.2668734020192303
398,E45,"Nürnberg, Germany","München, Germany",165,False,49.453872,11.077298,48.1371079,11.5753822,0.8631328942598332,0.19333532232458284,0.8401510252427733,0.20202853156674475
399,E45,"Villa San Giovanni, Italy","Messina, Italy",8,True,38.2201116,15.6373809,38.1937571,15.5542082,0.667066787899678,0.27292378309347415,0.6666068151019611,0.27147214563070066
400,E45,"Messina, Italy","Catánia, Italy",98,False,38.1937571,15.5542082,37.5022355,15.08738,0.6666068151019611,0.27147214563070066,0.6545374863333019,0.26332445649954206
401,E45,"Modena, Italy","Bologna, Italy",42,False,44.5384728,10.935960870530739,44.4937577,11.3430308,0.7773429941699379,0.1908685240600267,0.7765625684495794,0.19797323461512642
402,E45,"Napoli, Italy","Salerno, Italy",57,False,40.8359336,14.2487826,40.419441649999996,15.310756230322482,0.7127214944457809,0.24868817077087818,0.7054523386102294,0.2672231071893626
403,E45,"Verona, Italy","Modena, Italy",103,False,45.4384958,10.9924122,44.5384728,10.935960870530739,0.7930513588636149,0.19185378562639344,0.7773429941699379,0.1908685240600267
404,E45,"Fiano Romana, Italy","San Cesareo, Italy",64,False,44.4866354,11.3401649,41.819196,12.8003335,0.7764382608642646,0.19792321522409348,0.7298826607368426,0.2234079649283296
405,E45,"Vejle, Denmark","Kolding, Denmark",31,False,55.7000057,9.5333238,55.4894999,9.47905,0.9721484928446088,0.16638788896873738,0.9684744735400642,0.16544063246116852
406,E45,"Ålborg, Denmark","Århus, Denmark",121,False,57.0462626,9.9215263,56.1496278,10.2134046,0.9956451083273009,0.17316330075821068,0.9799958788793401,0.17825753810833445
407,E45,"Trento, Italy","Verona, Italy",99,False,46.0664228,11.1257601,45.4384958,10.9924122,0.8040107524757852,0.19418114553201357,0.7930513588636149,0.19185378562639344
408,E45,"Cosenza, Italy","Villa San Giovanni, Italy",177,False,39.596685300000004,16.333055599019605,38.2201116,15.6373809,0.6910925313610387,0.28506559711418683,0.667066787899678,0.27292378309347415
409,E45,"Bolzano, Italy","Trento, Italy",57,False,46.65594215,11.229637264169462,46.0664228,11.1257601,0.8142998061375022,0.19599414406440535,0.8040107524757852,0.19418114553201357
410,E45,"Würzburg, Germany","Nürnberg, Germany",118,False,49.79245,9.932966,49.453872,11.077298,0.8690421951346506,0.17336296118865108,0.8631328942598332,0.19333532232458284
411,E45,"Passo di Brennero, Italy","Fortezza, Italy",45,False,46.9620652,11.51496,46.7868474,11.61245,0.8196426612762492,0.20097396523544625,0.8165845337581484,0.2026754867232155
412,E45,"Flensburg, Germany","Hamburg, Germany",158,False,54.7833021,9.4333264,53.550341,10.000654,0.9561489967597238,0.16464260509530362,0.9346297660157128,0.17454433965274102
413,E45,"Fortezza, Italy","Bolzano, Italy",50,False,46.7868474,11.61245,46.65594215,11.229637264169462,0.8165845337581484,0.2026754867232155,0.8142998061375022,0.19599414406440535
414,E45,"Hamburg, Germany","Hannover, Germany",157,False,53.550341,10.000654,52.3744779,9.7385532,0.9346297660157128,0.17454433965274102,0.9141070833680055,0.16996981772062983
415,E45,"Hannover, Germany","Göttingen, Germany",124,False,52.3744779,9.7385532,51.5328328,9.9351811,0.9141070833680055,0.16996981772062983,0.8994176052397285,0.173401621976912
416,E45,"Göttingen, Germany","Kassel, Germany",46,False,51.5328328,9.9351811,51.3154546,9.4924096,0.8994176052397285,0.173401621976912,0.8956236399276698,0.16567380146791794
417,E45,"Århus, Denmark","Vejle, Denmark",69,False,56.1496278,10.2134046,55.7000057,9.5333238,0.9799958788793401,0.17825753810833445,0.9721484928446088,0.16638788896873738
418,E45,"Fulda, Germany","Würzburg, Germany",110,False,50.5542328,9.6770448,49.79245,9.932966,0.8823378131797119,0.16889629362299613,0.8690421951346506,0.17336296118865108
419,E45,"Kassel, Germany","Fulda, Germany",110,False,51.3154546,9.4924096,50.5542328,9.6770448,0.8956236399276698,0.16567380146791794,0.8823378131797119,0.16889629362299613
420,E45,"Frederikshavn, Denmark","Ålborg, Denmark",65,False,57.4412134,10.5336225,57.0462626,9.9215263,1.0025383001706867,0.1838463947871564,0.9956451083273009,0.17316330075821068
421,E45,"Brennerpaß, Austria","Passo di Brennero, Italy",0,False,47.0073993,11.5066996,46.9620652,11.51496,0.8204338905846777,0.20082979405791448,0.8196426612762492,0.20097396523544625
422,E45,"Innsbruck, Austria","Brennerpaß, Austria",36,False,47.2654296,11.3927685,47.0073993,11.5066996,0.8249373688895865,0.19884132124249562,0.8204338905846777,0.20082979405791448
423,E45,"Salerno, Italy","Sicignano degli Alburni, Italy",65,False,40.419441649999996,15.310756230322482,40.5810419,15.300396408040797,0.7054523386102294,0.2672231071893626,0.7082727950447755,0.2670422941806257
424,E45,"Rosenheim, Germany","Wörgl, Austria",53,False,47.8539273,12.127262,47.48033265,12.07928067668956,0.8352085913950003,0.21166065115199256,0.8286881346846644,0.2108232190807615
425,E45,"München, Germany","Rosenheim, Germany",72,False,48.1371079,11.5753822,47.8539273,12.127262,0.8401510252427733,0.20202853156674475,0.8352085913950003,0.21166065115199256
426,E45,"Wörgl, Austria","Innsbruck, Austria",60,False,47.48033265,12.07928067668956,47.2654296,11.3927685,0.8286881346846644,0.2108232190807615,0.8249373688895865,0.19884132124249562
427,E45,"Kolding, Denmark","Frøslev, Denmark",80,False,55.4894999,9.47905,56.8028447,8.7330983,0.9684744735400642,0.16544063246116852,0.9913966645140107,0.1524213192353195
428,E45,"Frøslev, Denmark","Flensburg, Germany",8,False,56.8028447,8.7330983,54.7833021,9.4333264,0.9913966645140107,0.1524213192353195,0.9561489967597238,0.16464260509530362
429,E46,"Caen, France","Rouen, France",122,False,49.1813403,-0.3635615,49.4404591,1.0939658,0.8583763187787757,-0.006345345208489363,0.8628987949925924,0.019093305114213786
430,E46,"Charleville-Mézières, France","Liège, Belgium",178,False,49.7735712,4.7206939,50.6451381,5.5734203,0.8687126979158251,0.08239165153381194,0.8839244099722251,0.09727453483249013
431,E46,"Cherbourg, France","Caen, France",122,False,49.51271975,-1.5755441090380597,49.1813403,-0.3635615,0.8641599812547237,-0.027498432213114692,0.8583763187787757,-0.006345345208489363
432,E46,"Reims, France","Charleville-Mézières, France",87,False,49.2577886,4.031926,49.7735712,4.7206939,0.859710593321328,0.0703703838967649,0.8687126979158251,0.08239165153381194
433,E46,"Rouen, France","Reims, France",244,False,49.4404591,1.0939658,49.2577886,4.031926,0.8628987949925924,0.019093305114213786,0.859710593321328,0.0703703838967649
434,E47,"Helsingør, Denmark","København, Denmark",47,False,56.0348739,12.6130073,55.6867243,12.5700724,0.9779930454948358,0.22013850596308018,0.9719166886853345,0.21938915059406566
435,E47,"København, Denmark","Køge, Denmark",45,False,55.6867243,12.5700724,55.4565009,12.1818964,0.9719166886853345,0.21938915059406566,0.9678985323401987,0.21261420131684414
436,E47,"Køge, Denmark","Vordingborg, Denmark",60,False,55.4565009,12.1818964,55.0102518,11.9097478,0.9678985323401987,0.21261420131684414,0.9601100162611372,0.20786431219215112
437,E47,"Vordingborg, Denmark","Farø, Denmark",11,False,55.0102518,11.9097478,54.95007595,11.990187202288263,0.9601100162611372,0.20786431219215112,0.959059749548451,0.20926824461041754
438,E47,"Farø, Denmark","Rødby, Denmark",53,False,54.95007595,11.990187202288263,54.6940639,11.3902205,0.959059749548451,0.20926824461041754,0.9545914963511707,0.19879685025315477
439,E47,"Rødby, Denmark","Lübeck, Germany",117,True,54.6940639,11.3902205,53.866444,10.684738,0.9545914963511707,0.19879685025315477,0.9401468041411445,0.18648385781295387
440,E47,"Helsingborg, Sweden","Helsingør, Denmark",9,True,56.0441984,12.7040684,56.0348739,12.6130073,0.978155788720938,0.22172782197856802,0.9779930454948358,0.22013850596308018
441,E48,"Karlovy Vary, Czechia","Praha, Czechia",126,False,50.2304694,12.8710769,50.0596288,14.446459273258009,0.8766870758522605,0.22464267018238493,0.873705344886178,0.25213827957361945
442,E48,"Cheb, Czechia","Karlovy Vary, Czechia",43,False,50.0793511,12.3703526,50.2304694,12.8710769,0.874049563957244,0.2159033825026411,0.8766870758522605,0.22464267018238493
443,E48,"Schweinfurt, Germany","Bayreuth, Germany",121,False,50.0499945,10.233302,49.9427202,11.5763079,0.8735371946300531,0.17860481325092079,0.8716649048922809,0.20204468807963047
444,E48,"Marktredwitz, Germany","Cheb, Czechia",26,False,50.0009915,12.0856433,50.0793511,12.3703526,0.8726819309366983,0.21093426780659277,0.874049563957244,0.2159033825026411
445,E48,"Bayreuth, Germany","Marktredwitz, Germany",49,False,49.9427202,11.5763079,50.0009915,12.0856433,0.8716649048922809,0.20204468807963047,0.8726819309366983,0.21093426780659277
446,E49,"Plauen, Germany","Schönberg, Germany",44,False,50.4950632,12.1346523,50.5443674,7.9348028,0.8813051088426239,0.21178963621970273,0.8821656294676857,0.1384884343564651
447,E49,"Halle, Germany","Plauen, Germany",161,False,51.4825041,11.9705452,50.4950632,12.1346523,0.89853920371648,0.20892542699880312,0.8813051088426239,0.21178963621970273
448,E49,"Karlovy Vary, Czechia","Plzeň, Czechia",73,False,50.2304694,12.8710769,49.7477415,13.3775249,0.8766870758522605,0.22464267018238493,0.8682618846060226,0.23348185527252519
449,E49,"Magdeburg, Germany","Halle, Germany",86,False,52.1315889,11.6399609,51.4825041,11.9705452,0.909867870601129,0.20315564250840243,0.89853920371648,0.20892542699880312
450,E49,"Schönberg, Germany","Vojtanov, Czechia",3,False,50.5443674,7.9348028,50.1683441,12.3173625,0.8821656294676857,0.1384884343564651,0.8756027848184713,0.21497853078668006
451,E49,"Plzeň, Czechia","České Budějovice, Czechia",137,False,49.7477415,13.3775249,48.9747357,14.474285,0.8682618846060226,0.23348185527252519,0.8547703882590098,0.25262393012202744
452,E49,"Halámky, Czechia","Wien, Austria",151,False,48.8531369,14.9151247,48.2083537,16.3725042,0.8526480888325358,0.26031803436053147,0.8413944990309907,0.2857541050866002
453,E49,"Třeboň, Czechia","Halámky, Czechia",25,False,49.0037313,14.7705054,48.8531369,14.9151247,0.8552764569476011,0.25779395141360206,0.8526480888325358,0.26031803436053147
454,E49,"České Budějovice, Czechia","Třeboň, Czechia",27,False,48.9747357,14.474285,49.0037313,14.7705054,0.8547703882590098,0.25262393012202744,0.8552764569476011,0.25779395141360206
455,E49,"Vojtanov, Czechia","Karlovy Vary, Czechia",52,False,50.1683441,12.3173625,50.2304694,12.8710769,0.8756027848184713,0.21497853078668006,0.8766870758522605,0.22464267018238493
456,E50,"Saarbrücken, Germany","Mannheim, Germany",135,False,49.234362,6.996379,49.4892913,8.4673098,0.8593017220187804,0.12210984926738835,0.8637510776635848,0.14778243479638256
457,E50,"Heilbronn, Germany","Nürnberg, Germany",166,False,49.142291,9.218655,49.453872,11.077298,0.8576947799231767,0.16089588235543786,0.8631328942598332,0.19333532232458284
458,E50,"Brest, France","Rennes, France",245,False,48.3905283,-4.4860088,48.1113387,-1.6800198,0.8445740456144943,-0.07829562383343978,0.8397012678571683,-0.029321877008696633
459,E50,"Rennes, France","Le Mans, France",151,False,48.1113387,-1.6800198,48.0073849,0.1967849,0.8397012678571683,-0.029321877008696633,0.8378869317772086,0.00343454442320779
460,E50,"Užgorod, Ukraine","Mukačevo, Ukraine",41,False,48.6223502,22.3021255,48.4421438,22.7185112,0.8486201010477235,0.3892455201679866,0.8454749060345574,0.39651282159120793
461,E50,"Nürnberg, Germany","Rozvadov, Czechia",134,False,49.453872,11.077298,49.65354095,12.563823585623167,0.8631328942598332,0.19333532232458284,0.8666177748513331,0.21928008820884395
462,E50,"Košice, Slovakia","Vyšné Nemecké, Slovakia",89,False,48.7172272,21.2496774,48.6593683,22.2632096,0.8502760170821382,0.37087683561662804,0.8492661887755558,0.38856630958160976
463,E50,"Le Mans, France","Paris, France",203,False,48.0073849,0.1967849,48.8566969,2.3514616,0.8378869317772086,0.00343454442320779,0.8527102225539067,0.041040747154213894
464,E50,"Metz, France","Saarbrücken, Germany",71,False,49.1196964,6.1763552,49.234362,6.996379,0.8573004297600056,0.10779773401267286,0.8593017220187804,0.12210984926738835
465,E50,"Reims, France","Metz, France",190,False,49.2577886,4.031926,49.1196964,6.1763552,0.859710593321328,0.0703703838967649,0.8573004297600056,0.10779773401267286
466,E50,"Mannheim, Germany","Heilbronn, Germany",80,False,49.4892913,8.4673098,49.142291,9.218655,0.8637510776635848,0.14778243479638256,0.8576947799231767,0.16089588235543786
467,E50,"Rozvadov, Czechia","Plzeň, Czechia",65,False,49.65354095,12.563823585623167,49.7477415,13.3775249,0.8666177748513331,0.21928008820884395,0.8682618846060226,0.23348185527252519
468,E50,"Paris, France","Reims, France",145,False,48.8566969,2.3514616,49.2577886,4.031926,0.8527102225539067,0.041040747154213894,0.859710593321328,0.0703703838967649
469,E50,"Praha, Czechia","Jihlava, Czechia",126,False,50.0596288,14.446459273258009,49.396064,15.5903065,0.873705344886178,0.25213827957361945,0.8621239543258403,0.27210217982007334
470,E50,"Brno, Czechia","Trencin, Slovakia",135,False,49.1922443,16.6113382,48.8923583,18.0393715,0.8585666294804132,0.2899225447523083,0.8533326313997774,0.3148464276654283
471,E50,"Trencin, Slovakia","Prešov, Slovakia",299,False,48.8923583,18.0393715,48.9975724,21.2401811,0.8533326313997774,0.3148464276654283,0.8551689638643001,0.37071109391487095
472,E50,"Prešov, Slovakia","Košice, Slovakia",35,False,48.9975724,21.2401811,48.7172272,21.2496774,0.8551689638643001,0.37071109391487095,0.8502760170821382,0.37087683561662804
473,E50,"Jihlava, Czechia","Brno, Czechia",90,False,49.396064,15.5903065,49.1922443,16.6113382,0.8621239543258403,0.27210217982007334,0.8585666294804132,0.2899225447523083
474,E50,"Vyšné Nemecké, Slovakia","Užgorod, Ukraine",6,False,48.6593683,22.2632096,48.6223502,22.3021255,0.8492661887755558,0.38856630958160976,0.8486201010477235,0.3892455201679866
475,E50,"Plzeň, Czechia","Praha, Czechia",93,False,49.7477415,13.3775249,50.0596288,14.446459273258009,0.8682618846060226,0.23348185527252519,0.873705344886178,0.25213827957361945
476,E51,"Bayreuth, Germany","Nürnberg, Germany",87,False,49.9427202,11.5763079,49.453872,11.077298,0.8716649048922809,0.20204468807963047,0.8631328942598332,0.19333532232458284
477,E51,"Hof, Germany","Bayreuth, Germany",54,False,50.3219015,11.9178807,49.9427202,11.5763079,0.8782828670392734,0.20800625807488654,0.8716649048922809,0.20204468807963047
478,E51,"Hirschberg, Germany","Hof, Germany",14,False,50.3781716,7.9223613,50.3219015,11.9178807,0.8792649655546998,0.13827128921757825,0.8782828670392734,0.20800625807488654
479,E51,"Gera, Germany","Hirschberg, Germany",66,False,50.8772301,12.0796208,50.3781716,7.9223613,0.8879751795397638,0.21082915535239144,0.8792649655546998,0.13827128921757825
480,E51,"Leipzig, Germany","Gera, Germany",68,False,51.3406321,12.3747329,50.8772301,12.0796208,0.8960630702000907,0.2159798331598662,0.8879751795397638,0.21082915535239144
481,E51,"Berlin, Germany","Leipzig, Germany",191,False,52.5170365,13.3888599,51.3406321,12.3747329,0.9165952003150392,0.23367968834323874,0.8960630702000907,0.2159798331598662
482,E52,"Appenweier, Germany","Karlsruhe, Germany",69,False,48.5387171,7.9802666,49.0068705,8.4034195,0.8471604280890737,0.13928192735693332,0.8553312463234797,0.14666733870129564
483,E52,"Ulm, Germany","München, Germany",143,False,48.3974003,9.9934336,48.1371079,11.5753822,0.8446939846406913,0.17441831989943,0.8401510252427733,0.20202853156674475
484,E52,"Strasbourg, France","Appenweier, Germany",22,False,48.584614,7.7507127,48.5387171,7.9802666,0.8479614801105323,0.1352754559911395,0.8471604280890737,0.13928192735693332
485,E52,"München, Germany","Salzburg, Austria",149,False,48.1371079,11.5753822,47.7981346,13.0464806,0.8401510252427733,0.20202853156674475,0.8342348250814228,0.22770404226756533
486,E52,"Karlsruhe, Germany","Stuttgart, Germany",80,False,49.0068705,8.4034195,48.7784485,9.1800132,0.8553312463234797,0.14666733870129564,0.8513445303394893,0.1602214557165407
487,E52,"Stuttgart, Germany","Ulm, Germany",91,False,48.7784485,9.1800132,48.3974003,9.9934336,0.8513445303394893,0.1602214557165407,0.8446939846406913,0.17441831989943
488,E53,"Bayerisch Eisenstein, Germany","Deggendorf, Germany",55,False,49.1222843,13.2031944,48.8333535,12.96205,0.8573455971357179,0.2304392140608772,0.8523028033652967,0.226230450308131
489,E53,"Plzeň, Czechia","Bayerisch Eisenstein, Germany",84,False,49.7477415,13.3775249,49.1222843,13.2031944,0.8682618846060226,0.23348185527252519,0.8573455971357179,0.2304392140608772
490,E53,"Deggendorf, Germany","München, Germany",146,False,48.8333535,12.96205,48.1371079,11.5753822,0.8523028033652967,0.226230450308131,0.8401510252427733,0.20202853156674475
491,E54,"Waldshut, Germany","Lindau, Germany",144,False,47.6246179,8.2120605,47.550753,9.6926624,0.8312063873592275,0.1433274940979718,0.8299172016525712,0.16916887216425563
492,E54,"Basel, Switzerland","Waldshut, Germany",54,False,47.5581077,7.5878261,47.6246179,8.2120605,0.8300455653830677,0.13243254851376052,0.8312063873592275,0.1433274940979718
493,E54,"Paris, France","Chaumont, France",265,False,48.8566969,2.3514616,48.1111324,5.1395849,0.8527102225539067,0.041040747154213894,0.8396976672429215,0.08970267869078351
494,E54,"Chaumont, France","Mulhouse, France",226,False,48.1111324,5.1395849,47.7467,7.3389275,0.8396976672429215,0.08970267869078351,0.8333371219619765,0.12808844844015613
495,E54,"Lindau, Germany","München, Germany",180,False,47.550753,9.6926624,48.1371079,11.5753822,0.8299172016525712,0.16916887216425563,0.8401510252427733,0.20202853156674475
496,E54,"Mulhouse, France","Basel, Switzerland",38,False,47.7467,7.3389275,47.5581077,7.5878261,0.8333371219619765,0.12808844844015613,0.8300455653830677,0.13243254851376052
497,E55,"Køge, Denmark","Vordingborg, Denmark",60,False,55.4565009,12.1818964,55.0102518,11.9097478,0.9678985323401987,0.21261420131684414,0.9601100162611372,0.20786431219215112
498,E55,"Venézia-Mestre, Italy","Ravenna, Italy",135,False,45.482462,12.2317016,44.364060699999996,12.059009490863945,0.7938187138132051,0.21348346604145843,0.7742989287696203,0.2104694201448209
499,E55,"Ravenna, Italy","Cesena, Italy",35,False,44.364060699999996,12.059009490863945,44.136352,12.2422442,0.7742989287696203,0.2104694201448209,0.7703246622191843,0.21366746912317916
500,E55,"Cesena, Italy","Rimini, Italy",38,False,44.136352,12.2422442,43.9470982,12.630768610516004,0.7703246622191843,0.21366746912317916,0.7670215602872735,0.22044849931105354
501,E55,"Rimini, Italy","Fano, Italy",53,False,43.9470982,12.630768610516004,43.8424173,13.0146632,0.7670215602872735,0.22044849931105354,0.7651945339183226,0.22714872387814128
502,E55,"Fano, Italy","Ancona, Italy",58,False,43.8424173,13.0146632,43.480120400000004,13.218790609151764,0.7651945339183226,0.22714872387814128,0.758871260143554,0.23071141926140518
503,E55,"Mesolóngi, Greece","Río, Greece",38,False,38.3686353,21.4283544,38.3018989,21.782579,0.6696590154819223,0.373995337564214,0.6684942455709943,0.38017772312577386
504,E55,"Pescara, Italy","Canosa di Puglia, Italy",236,False,42.3102619,13.95759010584892,41.219631,16.067466,0.7384533775361117,0.2436059029908475,0.7194182774071227,0.28043018415224324
505,E55,"Bari, Italy","Brindisi, Italy",119,False,41.1257843,16.8620293,40.6362271,17.688500723698695,0.7177803434999914,0.29429792985275466,0.709235958483147,0.308722577369942
506,E55,"Pírgos, Greece","Kalámata, Greece",111,False,37.6711849,21.4422805,37.0377582,22.1109392,0.6574862096325708,0.3742383938611759,0.6464308281475285,0.38590868974828096
507,E55,"Igoumenítsa, Greece","Préveza, Greece",92,False,39.5045294,20.2650921,38.9589226,20.7496811,0.6894841074809,0.35369258036489193,0.6799614723996298,0.36215025393383876
508,E55,"Préveza, Greece","Mesolóngi, Greece",126,False,38.9589226,20.7496811,38.3686353,21.4283544,0.6799614723996298,0.36215025393383876,0.6696590154819223,0.373995337564214
509,E55,"Río, Greece","Pátra, Greece",10,False,38.3018989,21.782579,38.246242,21.7350847,0.6684942455709943,0.38017772312577386,0.6675228494145411,0.379348791214844
510,E55,"Helsingør, Denmark","København, Denmark",47,False,56.0348739,12.6130073,55.6867243,12.5700724,0.9779930454948358,0.22013850596308018,0.9719166886853345,0.21938915059406566
511,E55,"Helsingborg, Sweden","Helsingør, Denmark",9,True,56.0441984,12.7040684,56.0348739,12.6130073,0.978155788720938,0.22172782197856802,0.9779930454948358,0.22013850596308018
512,E55,"Udine, Italy","Palmanova, Italy",24,False,46.0634632,13.2358377,45.9054635,13.3099318,0.8039590977112433,0.23100894712459347,0.80120148272908,0.23230213312589537
513,E55,"Canosa di Puglia, Italy","Bari, Italy",74,False,41.219631,16.067466,41.1257843,16.8620293,0.7194182774071227,0.28043018415224324,0.7177803434999914,0.29429792985275466
514,E55,"Ancona, Italy","Pescara, Italy",158,False,43.480120400000004,13.218790609151764,42.3102619,13.95759010584892,0.758871260143554,0.23071141926140518,0.7384533775361117,0.2436059029908475
515,E55,"Dolní Dvořiště, Czechia","Linz, Austria",58,False,48.6572723,14.455049993262225,48.3059078,14.286198,0.8492296066744341,0.25228821592281,0.8430971392748104,0.24934119269182886
516,E55,"Brindisi, Italy","Igoumenítsa, Greece",252,True,40.6362271,17.688500723698695,39.5045294,20.2650921,0.709235958483147,0.308722577369942,0.6894841074809,0.35369258036489193
517,E55,"Tábor, Czechia","České Budějovice, Czechia",57,False,49.4116462,14.671067073598662,48.9747357,14.474285,0.8623959150205446,0.25605842521522587,0.8547703882590098,0.25262393012202744
518,E55,"Teplice, Czechia","Praha, Czechia",95,False,50.6406644,13.8244461,50.0596288,14.446459273258009,0.8838463291774786,0.24128210170948927,0.873705344886178,0.25213827957361945
519,E55,"Nykøbing Falster, Denmark","Gedser, Denmark",23,False,54.7646137,11.8709918,54.57613795,11.93221627251935,0.9558228226477942,0.2071878923872482,0.9525333002501284,0.2082564610155076
520,E55,"Gedser, Denmark","Rostock, Germany",45,True,54.57613795,11.93221627251935,54.0924445,12.1286127,0.9525333002501284,0.2082564610155076,0.9440912569772978,0.21168422531419925
521,E55,"Rostock, Germany","Berlin, Germany",230,False,54.0924445,12.1286127,52.5170365,13.3888599,0.9440912569772978,0.21168422531419925,0.9165952003150392,0.23367968834323874
522,E55,"Berlin, Germany","Lübbenau, Germany",94,False,52.5170365,13.3888599,51.8680114,13.9689477,0.9165952003150392,0.23367968834323874,0.9052675753919535,0.2438041304038891
523,E55,"Lübbenau, Germany","Dresden, Germany",105,False,51.8680114,13.9689477,51.0493286,13.7381437,0.9052675753919535,0.2438041304038891,0.8909788650025073,0.2397758406771161
524,E55,"Vordingborg, Denmark","Farø, Denmark",11,False,55.0102518,11.9097478,54.95007595,11.990187202288263,0.9601100162611372,0.20786431219215112,0.959059749548451,0.20926824461041754
525,E55,"Praha, Czechia","Tábor, Czechia",86,False,50.0596288,14.446459273258009,49.4116462,14.671067073598662,0.873705344886178,0.25213827957361945,0.8623959150205446,0.25605842521522587
526,E55,"Dresden, Germany","Teplice, Czechia",63,False,51.0493286,13.7381437,50.6406644,13.8244461,0.8909788650025073,0.2397758406771161,0.8838463291774786,0.24128210170948927
527,E55,"České Budějovice, Czechia","Dolní Dvořiště, Czechia",42,False,48.9747357,14.474285,48.6572723,14.455049993262225,0.8547703882590098,0.25262393012202744,0.8492296066744341,0.25228821592281
528,E55,"Linz, Austria","Salzburg, Austria",130,False,48.3059078,14.286198,47.7981346,13.0464806,0.8430971392748104,0.24934119269182886,0.8342348250814228,0.22770404226756533
529,E55,"Salzburg, Austria","Villach, Austria",194,False,47.7981346,13.0464806,46.6167284,13.8500268,0.8342348250814228,0.22770404226756533,0.8136153970879482,0.24172856914945418
530,E55,"Villach, Austria","Tarvisio, Italy",32,False,46.6167284,13.8500268,46.5052624,13.5783734,0.8136153970879482,0.24172856914945418,0.8116699483839201,0.236987322895217
531,E55,"Farø, Denmark","Nykøbing Falster, Denmark",25,False,54.95007595,11.990187202288263,54.7646137,11.8709918,0.959059749548451,0.20926824461041754,0.9558228226477942,0.2071878923872482
532,E55,"Palmanova, Italy","Venézia-Mestre, Italy",103,False,45.9054635,13.3099318,45.482462,12.2317016,0.80120148272908,0.23230213312589537,0.7938187138132051,0.21348346604145843
533,E55,"København, Denmark","Køge, Denmark",45,False,55.6867243,12.5700724,55.4565009,12.1818964,0.9719166886853345,0.21938915059406566,0.9678985323401987,0.21261420131684414
534,E55,"Pátra, Greece","Pírgos, Greece",95,False,38.246242,21.7350847,37.6711849,21.4422805,0.6675228494145411,0.379348791214844,0.6574862096325708,0.3742383938611759
535,E55,"Tarvisio, Italy","Udine, Italy",96,False,46.5052624,13.5783734,46.0634632,13.2358377,0.8116699483839201,0.236987322895217,0.8039590977112433,0.23100894712459347
536,E56,"Nürnberg, Germany","Regensburg, Germany",104,False,49.453872,11.077298,49.0195333,12.0974869,0.8631328942598332,0.19333532232458284,0.8555522538760013,0.211140977621882
537,E56,"Regensburg, Germany","Passau, Germany",127,False,49.0195333,12.0974869,48.5748229,13.4609744,0.8555522538760013,0.211140977621882,0.8477905931781403,0.23493832380666815
538,E56,"Passau, Germany","Wels, Austria",88,False,48.5748229,13.4609744,48.1565472,14.0243752,0.8477905931781403,0.23493832380666815,0.8404903050320562,0.24477152277503827
539,E56,"Wels, Austria","Sattledt, Austria",11,False,48.1565472,14.0243752,48.0702992,14.0581292,0.8404903050320562,0.24477152277503827,0.8389849934587962,0.24536064121075643
540,E57,"Liezen, Austria","Sankt Michael in Obersteiermark, Austria",73,False,47.5070965,14.212568375549036,47.3378642,15.0210982,0.8291552519876744,0.24805611331815264,0.8262015911519516,0.2621676208553937
541,E57,"Graz, Austria","Maribor, Slovenia",67,False,47.0708678,15.4382786,46.5576439,15.6455854,0.8215416248809798,0.26944879241018066,0.8125841780260535,0.273066978631954
542,E57,"Sattledt, Austria","Liezen, Austria",79,False,48.0702992,14.0581292,47.5070965,14.212568375549036,0.8389849934587962,0.24536064121075643,0.8291552519876744,0.24805611331815264
543,E57,"Maribor, Slovenia","Ljubljana, Slovenia",133,False,46.5576439,15.6455854,46.0499803,14.5068602,0.8125841780260535,0.273066978631954,0.8037237767135262,0.2531924746165231
544,E57,"Sankt Michael in Obersteiermark, Austria","Graz, Austria",59,False,47.3378642,15.0210982,47.0708678,15.4382786,0.8262015911519516,0.2621676208553937,0.8215416248809798,0.26944879241018066
545,E58,"Wien, Austria","Bratislava, Slovakia",65,False,48.2083537,16.3725042,48.1516988,17.1093063,0.8413944990309907,0.2857541050866002,0.8404056844886025,0.29861372766720873
546,E59,"Spielfeld, Austria","Maribor, Slovenia",21,False,46.7064901,15.6337629,46.5576439,15.6455854,0.8151820342951357,0.272860637081137,0.8125841780260535,0.273066978631954
547,E59,"Maribor, Slovenia","Zagreb, Croatia",115,False,46.5576439,15.6455854,45.8131847,15.9771774,0.8125841780260535,0.273066978631954,0.7995909138392907,0.2788543508052271
548,E59,"Wien, Austria","Graz, Austria",201,False,48.2083537,16.3725042,47.0708678,15.4382786,0.8413944990309907,0.2857541050866002,0.8215416248809798,0.26944879241018066
549,E59,"Jihlava, Czechia","Wien, Austria",171,False,49.396064,15.5903065,48.2083537,16.3725042,0.8621239543258403,0.27210217982007334,0.8413944990309907,0.2857541050866002
